{
  "type": "FeatureCollection",
  "features": [
    {"type":"Feature","properties":{"st_type":"ST","cnn":"23730000","cnntext":"23730000","st_name":"UTAH"},"geometry":{"type":"Point","coordinates":[-122.40545417189192,37.75433723137436]}},{"type":"Feature","properties":{"st_type":"AVE","cnn":"22141000","cnntext":"22141000","st_name":"JOOST"},"geometry":{"type":"Point","coordinates":[-122.43974776014164,37.73236806396732]}},{"type":"Feature","properties":{"st_type":"DR","cnn":"27966000","cnntext":"27966000","st_name":"JOHN F KENNEDY"},"geometry":{"type":"Point","coordinates":[-122.5109259470119,37.77043567583329]}},{"type":"Feature","properties":{"st_type":"AVE","cnn":"21349000","cnntext":"21349000","st_name":"SAN JOSE"},"geometry":{"type":"Point","coordinates":[-122.42266944527441,37.74394224109009]}},{"type":"Feature","properties":{"st_type":"ST","cnn":"24388000","cnntext":"24388000","st_name":"MISSION"},"geometry":{"type":"Point","coordinates":[-122.41861821634723,37.77305345411757]}},{"type":"Feature","properties":{"st_type":"PL","cnn":"50222000","cnntext":"50222000","st_name":"TILLMAN"},"geometry":{"type":"Point","coordinates":[-122.40570976315199,37.78918186206256]}},{"type":"Feature","properties":{"st_type":"AVE","cnn":"27413000","cnntext":"27413000","st_name":"24TH"},"geometry":{"type":"Point","coordinates":[-122.48222116265117,37.759595723492176]}},{"type":"Feature","properties":{"st_type":"ST","cnn":"25125000","cnntext":"25125000","st_name":"SALMON"},"geometry":{"type":"Point","coordinates":[-122.41254065701172,37.79618740092784]}},{"type":"Feature","properties":{"st_type":"ST","cnn":"21264000","cnntext":"21264000","st_name":"BROOK"},"geometry":{"type":"Point","coordinates":[-122.4230899070404,37.74064188615599]}},{"type":"Feature","properties":{"st_type":"DR","cnn":"33593000","cnntext":"33593000","st_name":"PORTOLA"},"geometry":{"type":"Point","coordinates":[-122.45446744612599,37.74371814245612]}},{"type":"Feature","properties":{"st_type":"ST","cnn":"26478000","cnntext":"26478000","st_name":"STANYAN"},"geometry":{"type":"Point","coordinates":[-122.45497837621843,37.77632235896378]}},{"type":"Feature","properties":{"st_type":"ST","cnn":"26581000","cnntext":"26581000","st_name":"BUCHANAN"},"geometry":{"type":"Point","coordinates":[-122.43201590001351,37.79657475292712]}},{"type":"Feature","properties":{"st_type":"AVE","cnn":"50585000","cnntext":"50585000","st_name":"BELGRAVE"},"geometry":{"type":"Point","coordinates":[-122.45190430039537,37.75944794891266]}},{"type":"Feature","properties":{"st_type":"ST","cnn":"25572000","cnntext":"25572000","st_name":"LEAVENWORTH"},"geometry":{"type":"Point","coordinates":[-122.41834134242518,37.804070022326144]}},{"type":"Feature","properties":{"st_type":"ST","cnn":"30049000","cnntext":"30049000","st_name":"CALIFORNIA"},"geometry":{"type":"Point","coordinates":[-122.39639041504749,37.79366377811636]}},{"type":"Feature","properties":{"st_type":"AVE","cnn":"51642000","cnntext":"51642000","st_name":"INNES"},"geometry":{"type":"Point","coordinates":[-122.37835405221807,37.73347036679646]}},{"type":"Feature","properties":{"st_type":"ST","cnn":"27319000","cnntext":"27319000","st_name":"NORIEGA"},"geometry":{"type":"Point","coordinates":[-122.47433459583593,37.75433402988761]}},{"type":"Feature","properties":{"st_type":"ST","cnn":"23770000","cnntext":"23770000","st_name":"RHODE ISLAND"},"geometry":{"type":"Point","coordinates":[-122.40244334418895,37.763503459611314]}},{"type":"Feature","properties":{"st_type":"AVE","cnn":"21737000","cnntext":"21737000","st_name":"ITALY"},"geometry":{"type":"Point","coordinates":[-122.4395003750605,37.71846722595782]}},{"type":"Feature","properties":{"st_type":"AVE","cnn":"22254000","cnntext":"22254000","st_name":"HEARST"},"geometry":{"type":"Point","coordinates":[-122.45340856142971,37.73067203612568]}},{"type":"Feature","properties":{"st_type":"AVE","cnn":"52232000","cnntext":"52232000","st_name":"SAN BRUNO"},"geometry":{"type":"Point","coordinates":[-122.40113002709128,37.72166868369782]}},{"type":"Feature","properties":{"st_type":"WAY","cnn":"21999000","cnntext":"21999000","st_name":"BERKELEY"},"geometry":{"type":"Point","coordinates":[-122.43906017586673,37.73916659338697]}},{"type":"Feature","properties":{"st_type":"ST","cnn":"21647000","cnntext":"21647000","st_name":"EDINBURGH"},"geometry":{"type":"Point","coordinates":[-122.42965212555264,37.72434333705369]}},{"type":"Feature","properties":{"st_type":"ST","cnn":"26361000","cnntext":"26361000","st_name":"BRODERICK"},"geometry":{"type":"Point","coordinates":[-122.44078384288323,37.78131005700107]}},{"type":"Feature","properties":{"st_type":"WAY","cnn":"22376000","cnntext":"22376000","st_name":"REPOSA"},"geometry":{"type":"Point","coordinates":[-122.4491984663575,37.74082931198449]}},{"type":"Feature","properties":{"st_type":"ST","cnn":"20479000","cnntext":"20479000","st_name":"GOULD"},"geometry":{"type":"Point","coordinates":[-122.3976681355068,37.72287427695905]}},{"type":"Feature","properties":{"st_type":"AVE","cnn":"21527000","cnntext":"21527000","st_name":"MOUNT VERNON"},"geometry":{"type":"Point","coordinates":[-122.4451797855145,37.71657567304997]}},{"type":"Feature","properties":{"st_type":"ST","cnn":"22723000","cnntext":"22723000","st_name":"GARFIELD"},"geometry":{"type":"Point","coordinates":[-122.46985225729819,37.71965223287409]}},{"type":"Feature","properties":{"st_type":"ST","cnn":"23811000","cnntext":"23811000","st_name":"03RD"},"geometry":{"type":"Point","coordinates":[-122.39430003733213,37.78008973028666]}},{"type":"Feature","properties":{"st_type":"ST","cnn":"34073000","cnntext":"34073000","st_name":"09TH TI"},"geometry":{"type":"Point","coordinates":[-122.37104242271202,37.824815717507164]}},{"type":"Feature","properties":{"st_type":"ST","cnn":"20878000","cnntext":"20878000","st_name":"UNIVERSITY"},"geometry":{"type":"Point","coordinates":[-122.41197305800613,37.72145792768385]}},{"type":"Feature","properties":{"st_type":"ST","cnn":"21962000","cnntext":"21962000","st_name":"ADDISON"},"geometry":{"type":"Point","coordinates":[-122.43371064801944,37.74008092056229]}},{"type":"Feature","properties":{"st_type":"AVE","cnn":"21253000","cnntext":"21253000","st_name":"CORTLAND"},"geometry":{"type":"Point","coordinates":[-122.42027504462223,37.739984557426695]}},{"type":"Feature","properties":{"st_type":"AVE","cnn":"22756000","cnntext":"22756000","st_name":"OCEAN"},"geometry":{"type":"Point","coordinates":[-122.46733067825251,37.72777203806309]}},{"type":"Feature","properties":{"st_type":"AVE","cnn":"20813000","cnntext":"20813000","st_name":"OAKDALE"},"geometry":{"type":"Point","coordinates":[-122.40430629229422,37.74252073412632]}},{"type":"Feature","properties":{"st_type":"ST","cnn":"33040000","cnntext":"33040000","st_name":"16TH"},"geometry":{"type":"Point","coordinates":[-122.40854424234205,37.765722600161844]}},{"type":"Feature","properties":{"st_type":"ST","cnn":"23290000","cnntext":"23290000","st_name":"PACHECO"},"geometry":{"type":"Point","coordinates":[-122.48585711922024,37.750084563200794]}},{"type":"Feature","properties":{"st_type":"CT","cnn":"26168000","cnntext":"26168000","st_name":"ORD"},"geometry":{"type":"Point","coordinates":[-122.44028519902128,37.7634933381456]}},{"type":"Feature","properties":{"st_type":"ST","cnn":"20631000","cnntext":"20631000","st_name":"GIRARD"},"geometry":{"type":"Point","coordinates":[-122.40360091927764,37.724975587419415]}},{"type":"Feature","properties":{"st_type":"CT","cnn":"53028000","cnntext":"53028000","st_name":"KEPPLER"},"geometry":{"type":"Point","coordinates":[-122.37692440320443,37.827326428542975]}},{"type":"Feature","properties":{"st_type":"ST","cnn":"25612000","cnntext":"25612000","st_name":"JERSEY"},"geometry":{"type":"Point","coordinates":[-122.42625074286595,37.75096238826819]}},{"type":"Feature","properties":{"st_type":"PL","cnn":"24769000","cnntext":"24769000","st_name":"VERDI"},"geometry":{"type":"Point","coordinates":[-122.40379710331999,37.79789357700019]}},{"type":"Feature","properties":{"st_type":"TER","cnn":"26178000","cnntext":"26178000","st_name":"LOWER"},"geometry":{"type":"Point","coordinates":[-122.44379547014293,37.763295595866595]}},{"type":"Feature","properties":{"st_type":"AVE","cnn":"21200000","cnntext":"21200000","st_name":"RICHLAND"},"geometry":{"type":"Point","coordinates":[-122.41675951998033,37.73560466546946]}},{"type":"Feature","properties":{"st_type":"ST","cnn":"24350000","cnntext":"24350000","st_name":"KISSLING"},"geometry":{"type":"Point","coordinates":[-122.41500165321965,37.772649473998655]}},{"type":"Feature","properties":{"st_type":"RD","cnn":"32860000","cnntext":"32860000","st_name":"OAK ACCESS"},"geometry":{"type":"Point","coordinates":[-122.45329513196276,37.771390190417094]}},{"type":"Feature","properties":{"st_type":"ST","cnn":"20777000","cnntext":"20777000","st_name":"HELENA"},"geometry":{"type":"Point","coordinates":[-122.40468222376543,37.73639219272453]}},{"type":"Feature","properties":{"st_type":"ST","cnn":"51566000","cnntext":"51566000","st_name":"25TH"},"geometry":{"type":"Point","coordinates":[-122.4434299916572,37.7490905448597]}},{"type":"Feature","properties":{"st_type":"WAY","cnn":"54231000","cnntext":"54231000","st_name":"BALTIMORE"},"geometry":{"type":"Point","coordinates":[-122.43256981203487,37.70876800644106]}},{"type":"Feature","properties":{"st_type":"ALY","cnn":"25495000","cnntext":"25495000","st_name":"REDFIELD"},"geometry":{"type":"Point","coordinates":[-122.4148761877922,37.80068445370068]}},{"type":"Feature","properties":{"st_type":"ST","cnn":"25093000","cnntext":"25093000","st_name":"TAYLOR"},"geometry":{"type":"Point","coordinates":[-122.41264965727603,37.792552336754994]}},{"type":"Feature","properties":{"st_type":"PL","cnn":"24984000","cnntext":"24984000","st_name":"SABIN"},"geometry":{"type":"Point","coordinates":[-122.40671823433784,37.79235226189566]}},{"type":"Feature","properties":{"st_type":"AVE","cnn":"27521000","cnntext":"27521000","st_name":"26TH"},"geometry":{"type":"Point","coordinates":[-122.48526202472691,37.77252041982986]}},{"type":"Feature","properties":{"st_type":"AVE","cnn":"24475000","cnntext":"24475000","st_name":"VAN NESS"},"geometry":{"type":"Point","coordinates":[-122.4204519020291,37.78150997061181]}},{"type":"Feature","properties":{"st_type":"ST","cnn":"24764000","cnntext":"24764000","st_name":"MONTGOMERY"},"geometry":{"type":"Point","coordinates":[-122.40354916727402,37.79667132305735]}},{"type":"Feature","properties":{"st_type":"RD","cnn":"52082000","cnntext":"52082000","st_name":"FORT FUNSTON"},"geometry":{"type":"Point","coordinates":[-122.49954360473495,37.71266971268049]}},{"type":"Feature","properties":{"st_type":"ST","cnn":"30047000","cnntext":"30047000","st_name":"SACRAMENTO"},"geometry":{"type":"Point","coordinates":[-122.41192994408037,37.7926445051445]}},{"type":"Feature","properties":{"st_type":"WAY","cnn":"22421000","cnntext":"22421000","st_name":"JUANITA"},"geometry":{"type":"Point","coordinates":[-122.45162570402579,37.74450281259112]}},{"type":"Feature","properties":{"st_type":"DR","cnn":"23015000","cnntext":"23015000","st_name":"STRATFORD"},"geometry":{"type":"Point","coordinates":[-122.47361077650058,37.71998055750954]}},{"type":"Feature","properties":{"st_type":"ST","cnn":"21889000","cnntext":"21889000","st_name":"LAIDLEY"},"geometry":{"type":"Point","coordinates":[-122.43034955331298,37.74019960692891]}},{"type":"Feature","properties":{"st_type":"DR","cnn":"22846000","cnntext":"22846000","st_name":"MIRALOMA"},"geometry":{"type":"Point","coordinates":[-122.45912284792823,37.74013802432872]}},{"type":"Feature","properties":{"st_type":"ST","cnn":"23696000","cnntext":"23696000","st_name":"24TH"},"geometry":{"type":"Point","coordinates":[-122.40059650598236,37.753344062106024]}},{"type":"Feature","properties":{"st_type":"WAY","cnn":"22879000","cnntext":"22879000","st_name":"KENSINGTON"},"geometry":{"type":"Point","coordinates":[-122.4619752625845,37.74295712487963]}},{"type":"Feature","properties":{"st_type":"AVE","cnn":"51427000","cnntext":"51427000","st_name":"06TH"},"geometry":{"type":"Point","coordinates":[-122.46481698606149,37.78837755901816]}},{"type":"Feature","properties":{"st_type":"DR","cnn":"22437000","cnntext":"22437000","st_name":"PORTOLA"},"geometry":{"type":"Point","coordinates":[-122.45226885598589,37.74517381205752]}},{"type":"Feature","properties":{"st_type":"ST","cnn":"23991000","cnntext":"23991000","st_name":"FOLSOM"},"geometry":{"type":"Point","coordinates":[-122.41423350930643,37.75409888283819]}},{"type":"Feature","properties":{"st_type":"ST","cnn":"25549000","cnntext":"25549000","st_name":"LARKIN"},"geometry":{"type":"Point","coordinates":[-122.42068880147033,37.79897105678115]}},{"type":"Feature","properties":{"st_type":"ST","cnn":"23882000","cnntext":"23882000","st_name":"DECATUR"},"geometry":{"type":"Point","coordinates":[-122.40654518233545,37.7728607496386]}},{"type":"Feature","properties":{"st_type":"AVE","cnn":"22662000","cnntext":"22662000","st_name":"JULES"},"geometry":{"type":"Point","coordinates":[-122.4612105475138,37.72494970117645]}},{"type":"Feature","properties":{"st_type":"ST","cnn":"20369000","cnntext":"20369000","st_name":"SCHWERIN"},"geometry":{"type":"Point","coordinates":[-122.41196819706332,37.70921035234348]}},{"type":"Feature","properties":{"st_type":"AVE","cnn":"23000000","cnntext":"23000000","st_name":"15TH"},"geometry":{"type":"Point","coordinates":[-122.47131911737722,37.746984218402645]}},{"type":"Feature","properties":{"st_type":"AVE","cnn":"24225000","cnntext":"24225000","st_name":"TREAT"},"geometry":{"type":"Point","coordinates":[-122.4126108380924,37.767538342394616]}},{"type":"Feature","properties":{"st_type":"BLVD","cnn":"23126000","cnntext":"23126000","st_name":"LAKE MERCED"},"geometry":{"type":"Point","coordinates":[-122.48655207268045,37.729585010598264]}},{"type":"Feature","properties":{"st_type":"AVE","cnn":"22098000","cnntext":"22098000","st_name":"NIAGARA"},"geometry":{"type":"Point","coordinates":[-122.44590919588786,37.718827696015175]}},{"type":"Feature","properties":{"st_type":"ST","cnn":"51176000","cnntext":"51176000","st_name":"WEDEMEYER"},"geometry":{"type":"Point","coordinates":[-122.47335420985458,37.787491817523005]}},{"type":"Feature","properties":{"st_type":"ST","cnn":"24731000","cnntext":"24731000","st_name":"CALIFORNIA"},"geometry":{"type":"Point","coordinates":[-122.40382799938153,37.79271713183143]}},{"type":"Feature","properties":{"st_type":"ST","cnn":"21115000","cnntext":"21115000","st_name":"FRANCONIA"},"geometry":{"type":"Point","coordinates":[-122.40782840272553,37.74603469112208]}},{"type":"Feature","properties":{"st_type":"ST","cnn":"51863000","cnntext":"51863000","st_name":"BRADFORD"},"geometry":{"type":"Point","coordinates":[-122.40968708447953,37.73765463273906]}},{"type":"Feature","properties":{"st_type":"AVE","cnn":"20329000","cnntext":"20329000","st_name":"CAMPBELL"},"geometry":{"type":"Point","coordinates":[-122.40382283793595,37.714395520756256]}},{"type":"Feature","properties":{"st_type":"AVE","cnn":"30709000","cnntext":"30709000","st_name":"VAN NESS"},"geometry":{"type":"Point","coordinates":[-122.42136006336149,37.78521438365283]}},{"type":"Feature","properties":{"st_type":"ST","cnn":"25949000","cnntext":"25949000","st_name":"OAK"},"geometry":{"type":"Point","coordinates":[-122.43082471319346,37.773972520822284]}},{"type":"Feature","properties":{"st_type":"ST","cnn":"26613000","cnntext":"26613000","st_name":"PIERCE"},"geometry":{"type":"Point","coordinates":[-122.43602866437455,37.78284676206979]}},{"type":"Feature","properties":{"st_type":"ST","cnn":"20900000","cnntext":"20900000","st_name":"SOMERSET"},"geometry":{"type":"Point","coordinates":[-122.4085485112026,37.729002897575654]}},{"type":"Feature","properties":{"st_type":"ST","cnn":"20366000","cnntext":"20366000","st_name":"DELTA"},"geometry":{"type":"Point","coordinates":[-122.41044102592122,37.71034975554144]}},{"type":"Feature","properties":{"st_type":"DR","cnn":"22381000","cnntext":"22381000","st_name":"CRESTA VISTA"},"geometry":{"type":"Point","coordinates":[-122.45157827650144,37.736056956400276]}},{"type":"Feature","properties":{"st_type":"ST","cnn":"26367000","cnntext":"26367000","st_name":"BAKER"},"geometry":{"type":"Point","coordinates":[-122.4421276483993,37.781528875453134]}},{"type":"Feature","properties":{"st_type":"ST","cnn":"21234000","cnntext":"21234000","st_name":"MURRAY"},"geometry":{"type":"Point","coordinates":[-122.42013382026789,37.73613745989306]}},{"type":"Feature","properties":{"st_type":"AVE","cnn":"25190000","cnntext":"25190000","st_name":"VAN NESS"},"geometry":{"type":"Point","coordinates":[-122.42100836002977,37.783824118235344]}},{"type":"Feature","properties":{"st_type":"TER","cnn":"33637000","cnntext":"33637000","st_name":"PRESIDIO"},"geometry":{"type":"Point","coordinates":[-122.46031545286887,37.78825670385725]}},{"type":"Feature","properties":{"st_type":"AVE","cnn":"26485000","cnntext":"26485000","st_name":"ROSSI"},"geometry":{"type":"Point","coordinates":[-122.45605066244552,37.77749934476735]}},{"type":"Feature","properties":{"st_type":"ST","cnn":"27430000","cnntext":"27430000","st_name":"KIRKHAM"},"geometry":{"type":"Point","coordinates":[-122.48757950106325,37.759359420691524]}},{"type":"Feature","properties":{"st_type":"AVE","cnn":"23433000","cnntext":"23433000","st_name":"42ND"},"geometry":{"type":"Point","coordinates":[-122.49993927550138,37.73637053193773]}},{"type":"Feature","properties":{"st_type":"AVE","cnn":"23208000","cnntext":"23208000","st_name":"21ST"},"geometry":{"type":"Point","coordinates":[-122.47809442535653,37.746685252900186]}},{"type":"Feature","properties":{"st_type":"ST","cnn":"24213000","cnntext":"24213000","st_name":"BRYANT"},"geometry":{"type":"Point","coordinates":[-122.41060980137173,37.76690344477832]}},{"type":"Feature","properties":{"st_type":"CT","cnn":"34102000","cnntext":"34102000","st_name":"HUTCHINS"},"geometry":{"type":"Point","coordinates":[-122.37647902164764,37.827832723652655]}},{"type":"Feature","properties":{"st_type":"ST","cnn":"27475000","cnntext":"27475000","st_name":"ANZA"},"geometry":{"type":"Point","coordinates":[-122.47217361834193,37.778728021359676]}},{"type":"Feature","properties":{"st_type":"AVE","cnn":"26113000","cnntext":"26113000","st_name":"BURNETT"},"geometry":{"type":"Point","coordinates":[-122.44577864834352,37.75050368498677]}},{"type":"Feature","properties":{"st_type":"ST","cnn":"26655000","cnntext":"26655000","st_name":"WEBSTER"},"geometry":{"type":"Point","coordinates":[-122.43327422535654,37.79447411162771]}},{"type":"Feature","properties":{"st_type":"ST","cnn":"23904000","cnntext":"23904000","st_name":"PERRY"},"geometry":{"type":"Point","coordinates":[-122.39907963435923,37.78036288755931]}},{"type":"Feature","properties":{"st_type":"ST","cnn":"20855000","cnntext":"20855000","st_name":"COLBY"},"geometry":{"type":"Point","coordinates":[-122.41000174552873,37.71933156881691]}},{"type":"Feature","properties":{"st_type":"AVE","cnn":"20324000","cnntext":"20324000","st_name":"CAMPBELL"},"geometry":{"type":"Point","coordinates":[-122.40256214774732,37.71464974355344]}},{"type":"Feature","properties":{"st_type":"ST","cnn":"27765000","cnntext":"27765000","st_name":"ORTEGA"},"geometry":{"type":"Point","coordinates":[-122.50206032058311,37.751239765382685]}},{"type":"Feature","properties":{"st_type":"ST","cnn":"25776000","cnntext":"25776000","st_name":"EUREKA"},"geometry":{"type":"Point","coordinates":[-122.43776923061994,37.755540691220865]}},{"type":"Feature","properties":{"st_type":"ST","cnn":"21913000","cnntext":"21913000","st_name":"28TH"},"geometry":{"type":"Point","coordinates":[-122.42903667185735,37.745165387163]}},{"type":"Feature","properties":{"st_type":"AVE","cnn":"32868000","cnntext":"32868000","st_name":"37TH"},"geometry":{"type":"Point","coordinates":[-122.49650383698142,37.76398195930737]}},{"type":"Feature","properties":{"st_type":"AVE","cnn":"22149000","cnntext":"22149000","st_name":"CIRCULAR"},"geometry":{"type":"Point","coordinates":[-122.44592981034661,37.72671578050493]}},{"type":"Feature","properties":{"st_type":"AVE","cnn":"51660000","cnntext":"51660000","st_name":"CHARTER OAK"},"geometry":{"type":"Point","coordinates":[-122.40471817785834,37.73618717236195]}},{"type":"Feature","properties":{"st_type":"ST","cnn":"33619000","cnntext":"33619000","st_name":"TOWNSEND"},"geometry":{"type":"Point","coordinates":[-122.40439138125589,37.769749519923735]}},{"type":"Feature","properties":{"st_type":"DR","cnn":"22001000","cnntext":"22001000","st_name":"GOLD MINE"},"geometry":{"type":"Point","coordinates":[-122.43866078027528,37.74066032445655]}},{"type":"Feature","properties":{"st_type":"BLVD","cnn":"51475000","cnntext":"51475000","st_name":"ARGUELLO"},"geometry":{"type":"Point","coordinates":[-122.45947564992773,37.78971055920283]}},{"type":"Feature","properties":{"st_type":"ST","cnn":"23908000","cnntext":"23908000","st_name":"05TH"},"geometry":{"type":"Point","coordinates":[-122.40184327330405,37.77903213272598]}},{"type":"Feature","properties":{"st_type":"ST","cnn":"26592000","cnntext":"26592000","st_name":"FILLMORE"},"geometry":{"type":"Point","coordinates":[-122.43308339798848,37.78515094012389]}},{"type":"Feature","properties":{"st_type":"AVE","cnn":"33178000","cnntext":"33178000","st_name":"SAN BRUNO"},"geometry":{"type":"Point","coordinates":[-122.40142155547527,37.722369028674635]}},{"type":"Feature","properties":{"st_type":"WAY","cnn":"20404000","cnntext":"20404000","st_name":"SUNRISE"},"geometry":{"type":"Point","coordinates":[-122.415955915831,37.70969486819434]}},{"type":"Feature","properties":{"st_type":"AVE","cnn":"27685000","cnntext":"27685000","st_name":"32ND"},"geometry":{"type":"Point","coordinates":[-122.49053434338326,37.75549313206275]}},{"type":"Feature","properties":{"st_type":"ST","cnn":"24288000","cnntext":"24288000","st_name":"RUSS"},"geometry":{"type":"Point","coordinates":[-122.40880899411367,37.77929370225371]}},{"type":"Feature","properties":{"st_type":"AVE","cnn":"33459000","cnntext":"33459000","st_name":"NAGLEE"},"geometry":{"type":"Point","coordinates":[-122.45095624574034,37.71549351241602]}},{"type":"Feature","properties":{"st_type":"ST","cnn":"30066000","cnntext":"30066000","st_name":"JACKSON"},"geometry":{"type":"Point","coordinates":[-122.40779730422788,37.7958809623435]}},{"type":"Feature","properties":{"st_type":"ST","cnn":"26005000","cnntext":"26005000","st_name":"CASTRO"},"geometry":{"type":"Point","coordinates":[-122.43579421323098,37.76905845384622]}},{"type":"Feature","properties":{"st_type":"ST","cnn":"21290000","cnntext":"21290000","st_name":"SHOTWELL"},"geometry":{"type":"Point","coordinates":[-122.41491896324389,37.74823073104767]}},{"type":"Feature","properties":{"st_type":"ST","cnn":"26594000","cnntext":"26594000","st_name":"STEINER"},"geometry":{"type":"Point","coordinates":[-122.43456209903648,37.78415186343376]}},{"type":"Feature","properties":{"st_type":"ST","cnn":"27484000","cnntext":"27484000","st_name":"CLEMENT"},"geometry":{"type":"Point","coordinates":[-122.47245106094857,37.78257853781851]}},{"type":"Feature","properties":{"st_type":"AVE","cnn":"21632000","cnntext":"21632000","st_name":"PERSIA"},"geometry":{"type":"Point","coordinates":[-122.42959915439116,37.720090314183544]}},{"type":"Feature","properties":{"st_type":"AVE","cnn":"23036000","cnntext":"23036000","st_name":"JOSEPHA"},"geometry":{"type":"Point","coordinates":[-122.47750075056577,37.71601422638823]}},{"type":"Feature","properties":{"st_type":"AVE","cnn":"27425000","cnntext":"27425000","st_name":"26TH"},"geometry":{"type":"Point","coordinates":[-122.48436517174542,37.759501201942214]}},{"type":"Feature","properties":{"st_type":"ST","cnn":"24808000","cnntext":"24808000","st_name":"BATTERY"},"geometry":{"type":"Point","coordinates":[-122.4012402414252,37.79953144773348]}},{"type":"Feature","properties":{"st_type":"ST","cnn":"26451000","cnntext":"26451000","st_name":"CLAYTON"},"geometry":{"type":"Point","coordinates":[-122.44970782688885,37.775389941529106]}},{"type":"Feature","properties":{"st_type":"AVE","cnn":"27151000","cnntext":"27151000","st_name":"07TH"},"geometry":{"type":"Point","coordinates":[-122.4642373753811,37.765066770366275]}},{"type":"Feature","properties":{"st_type":"ST","cnn":"25770000","cnntext":"25770000","st_name":"DIAMOND"},"geometry":{"type":"Point","coordinates":[-122.43652652723077,37.75353959005967]}},{"type":"Feature","properties":{"st_type":"ST","cnn":"24916000","cnntext":"24916000","st_name":"MASON"},"geometry":{"type":"Point","coordinates":[-122.40993054294215,37.78742933089278]}},{"type":"Feature","properties":{"st_type":"AVE","cnn":"27086000","cnntext":"27086000","st_name":"06TH"},"geometry":{"type":"Point","coordinates":[-122.46316736900316,37.76511423987736]}},{"type":"Feature","properties":{"st_type":"ST","cnn":"24687000","cnntext":"24687000","st_name":"LEIDESDORFF"},"geometry":{"type":"Point","coordinates":[-122.40175412088979,37.79200342923639]}},{"type":"Feature","properties":{"st_type":"ST","cnn":"22230000","cnntext":"22230000","st_name":"EDNA"},"geometry":{"type":"Point","coordinates":[-122.44729182093882,37.73154715336937]}},{"type":"Feature","properties":{"st_type":"ST","cnn":"50328000","cnntext":"50328000","st_name":"ASH"},"geometry":{"type":"Point","coordinates":[-122.42240883005711,37.77934583297946]}},{"type":"Feature","properties":{"st_type":"ST","cnn":"26973000","cnntext":"26973000","st_name":"SCOTT"},"geometry":{"type":"Point","coordinates":[-122.44097756105846,37.799212366621994]}},{"type":"Feature","properties":{"st_type":"ST","cnn":"53004000","cnntext":"53004000","st_name":"STEUART"},"geometry":{"type":"Point","coordinates":[-122.39118298474997,37.791625734299465]}},{"type":"Feature","properties":{"st_type":"AVE","cnn":"51996000","cnntext":"51996000","st_name":"LELAND"},"geometry":{"type":"Point","coordinates":[-122.41546932731616,37.714740862211684]}},{"type":"Feature","properties":{"st_type":"AVE","cnn":"21097000","cnntext":"21097000","st_name":"PERALTA"},"geometry":{"type":"Point","coordinates":[-122.40874913362101,37.74127737694535]}},{"type":"Feature","properties":{"st_type":"AVE","cnn":"27716000","cnntext":"27716000","st_name":"33RD"},"geometry":{"type":"Point","coordinates":[-122.49199747295474,37.76103951382407]}},{"type":"Feature","properties":{"st_type":"ST","cnn":"20855000","cnntext":"20855000","st_name":"MANSELL"},"geometry":{"type":"Point","coordinates":[-122.41000174552873,37.71933156881691]}},{"type":"Feature","properties":{"st_type":"AVE","cnn":"22272000","cnntext":"22272000","st_name":"MANGELS"},"geometry":{"type":"Point","coordinates":[-122.44200231908557,37.7330979558651]}},{"type":"Feature","properties":{"st_type":"ST","cnn":"25994000","cnntext":"25994000","st_name":"STEINER"},"geometry":{"type":"Point","coordinates":[-122.43246706868024,37.77375698924033]}},{"type":"Feature","properties":{"st_type":"AVE","cnn":"21635000","cnntext":"21635000","st_name":"BRAZIL"},"geometry":{"type":"Point","coordinates":[-122.42843213212953,37.721634672937526]}},{"type":"Feature","properties":{"st_type":"ST","cnn":"26403000","cnntext":"26403000","st_name":"CLAYTON"},"geometry":{"type":"Point","coordinates":[-122.44801316093437,37.76700668068964]}},{"type":"Feature","properties":{"st_type":"ST","cnn":"33605000","cnntext":"33605000","st_name":"SCHWERIN"},"geometry":{"type":"Point","coordinates":[-122.41249676742855,37.708020185075824]}},{"type":"Feature","properties":{"st_type":"ST","cnn":"26652000","cnntext":"26652000","st_name":"WEBSTER"},"geometry":{"type":"Point","coordinates":[-122.43299959578239,37.79311940754522]}},{"type":"Feature","properties":{"st_type":"ST","cnn":"26625000","cnntext":"26625000","st_name":"SCOTT"},"geometry":{"type":"Point","coordinates":[-122.43820638258525,37.785459341955516]}},{"type":"Feature","properties":{"st_type":"AVE","cnn":"27306000","cnntext":"27306000","st_name":"12TH"},"geometry":{"type":"Point","coordinates":[-122.47084599557043,37.78265240065586]}},{"type":"Feature","properties":{"st_type":"RAMP","cnn":"50082000","cnntext":"50082000","st_name":"I-80 E OFF"},"geometry":{"type":"Point","coordinates":[-122.40650759023225,37.773004838270985]}},{"type":"Feature","properties":{"st_type":"ST","cnn":"25486000","cnntext":"25486000","st_name":"JEFFERSON"},"geometry":{"type":"Point","coordinates":[-122.41416443389006,37.80842105974719]}},{"type":"Feature","properties":{"st_type":"ST","cnn":"25231000","cnntext":"25231000","st_name":"LEAVENWORTH"},"geometry":{"type":"Point","coordinates":[-122.41575019743716,37.79120630899068]}},{"type":"Feature","properties":{"st_type":"ST","cnn":"24048000","cnntext":"24048000","st_name":"16TH"},"geometry":{"type":"Point","coordinates":[-122.41048668917078,37.765605838572974]}},{"type":"Feature","properties":{"st_type":"ST","cnn":"20207000","cnntext":"20207000","st_name":"CASHMERE"},"geometry":{"type":"Point","coordinates":[-122.38656998124495,37.736719723330154]}},{"type":"Feature","properties":{"st_type":"RAMP","cnn":"33692000","cnntext":"33692000","st_name":"INDUSTRIAL ST OFF"},"geometry":{"type":"Point","coordinates":[-122.40816909818737,37.73585911286461]}},{"type":"Feature","properties":{"st_type":"ST","cnn":"24693000","cnntext":"24693000","st_name":"FRONT"},"geometry":{"type":"Point","coordinates":[-122.39914941955925,37.79516338591074]}},{"type":"Feature","properties":{"st_type":"ST","cnn":"50116000","cnntext":"50116000","st_name":"WORDEN"},"geometry":{"type":"Point","coordinates":[-122.41059275266683,37.805481648650805]}},{"type":"Feature","properties":{"st_type":"ST","cnn":"23413000","cnntext":"23413000","st_name":"QUINTARA"},"geometry":{"type":"Point","coordinates":[-122.49215591789735,37.747935694739525]}},{"type":"Feature","properties":{"st_type":"ST","cnn":"21499000","cnntext":"21499000","st_name":"BRUNSWICK"},"geometry":{"type":"Point","coordinates":[-122.446705073594,37.70940240108997]}},{"type":"Feature","properties":{"st_type":"PLZ","cnn":"24887000","cnntext":"24887000","st_name":"MINT"},"geometry":{"type":"Point","coordinates":[-122.40787123616941,37.78275064802302]}},{"type":"Feature","properties":{"st_type":"AVE","cnn":"20661000","cnntext":"20661000","st_name":"NEWCOMB"},"geometry":{"type":"Point","coordinates":[-122.38977083661644,37.735224882983665]}},{"type":"Feature","properties":{"st_type":"AVE","cnn":"23476000","cnntext":"23476000","st_name":"42ND"},"geometry":{"type":"Point","coordinates":[-122.50059751355597,37.745691978351275]}},{"type":"Feature","properties":{"st_type":"ST","cnn":"20679000","cnntext":"20679000","st_name":"PHELPS"},"geometry":{"type":"Point","coordinates":[-122.39409283312784,37.736728652036525]}},{"type":"Feature","properties":{"st_type":"ST","cnn":"21497000","cnntext":"21497000","st_name":"BRUNSWICK"},"geometry":{"type":"Point","coordinates":[-122.44550334417629,37.709813314843394]}},{"type":"Feature","properties":{"st_type":"ST","cnn":"27002000","cnntext":"27002000","st_name":"BRODERICK"},"geometry":{"type":"Point","coordinates":[-122.44470426876669,37.80069573443116]}},{"type":"Feature","properties":{"st_type":"CIR","cnn":"28166000","cnntext":"28166000","st_name":"RICHARDS"},"geometry":{"type":"Point","coordinates":[-122.38577233432947,37.73578395898233]}},{"type":"Feature","properties":{"st_type":"AVE","cnn":"22094000","cnntext":"22094000","st_name":"DELANO"},"geometry":{"type":"Point","coordinates":[-122.44626303603685,37.7182644134966]}},{"type":"Feature","properties":{"st_type":"AVE","cnn":"33136000","cnntext":"33136000","st_name":"GALVEZ"},"geometry":{"type":"Point","coordinates":[-122.37684437432496,37.73450378915212]}},{"type":"Feature","properties":{"st_type":"ST","cnn":"52259000","cnntext":"52259000","st_name":"INDUSTRIAL"},"geometry":{"type":"Point","coordinates":[-122.40812457755989,37.737657377719316]}},{"type":"Feature","properties":{"st_type":null,"cnn":"52224000","cnntext":"52224000","st_name":"UNNAMED 129"},"geometry":{"type":"Point","coordinates":[-122.4842247279895,37.70835275444294]}},{"type":"Feature","properties":{"st_type":"LN","cnn":"22311000","cnntext":"22311000","st_name":"CORALINO"},"geometry":{"type":"Point","coordinates":[-122.44280914286604,37.74433075939708]}},{"type":"Feature","properties":{"st_type":"ST","cnn":"30755000","cnntext":"30755000","st_name":"MARKET"},"geometry":{"type":"Point","coordinates":[-122.42261969061566,37.77250281741758]}},{"type":"Feature","properties":{"st_type":"ST","cnn":"23933000","cnntext":"23933000","st_name":"06TH"},"geometry":{"type":"Point","coordinates":[-122.40506850923869,37.778068981389985]}},{"type":"Feature","properties":{"st_type":"AVE","cnn":"51845000","cnntext":"51845000","st_name":"BURKE"},"geometry":{"type":"Point","coordinates":[-122.36805963935299,37.73424236193478]}},{"type":"Feature","properties":{"st_type":"ST","cnn":"27232000","cnntext":"27232000","st_name":"CLEMENT"},"geometry":{"type":"Point","coordinates":[-122.45899840099553,37.7831886648312]}},{"type":"Feature","properties":{"st_type":"ST","cnn":"25656000","cnntext":"25656000","st_name":"CHATTANOOGA"},"geometry":{"type":"Point","coordinates":[-122.42663400783238,37.754962268353054]}},{"type":"Feature","properties":{"st_type":"ST","cnn":"26604000","cnntext":"26604000","st_name":"WEBSTER"},"geometry":{"type":"Point","coordinates":[-122.43200332530446,37.78815907489617]}},{"type":"Feature","properties":{"st_type":"AVE","cnn":"20345000","cnntext":"20345000","st_name":"VISITACION"},"geometry":{"type":"Point","coordinates":[-122.40618512767894,37.71095726614341]}},{"type":"Feature","properties":{"st_type":"WAY","cnn":"35041000","cnntext":"35041000","st_name":"DORCAS"},"geometry":{"type":"Point","coordinates":[-122.4486552637515,37.73619631775583]}},{"type":"Feature","properties":{"st_type":"PATH","cnn":"32999000","cnntext":"32999000","st_name":"PORTAL"},"geometry":{"type":"Point","coordinates":[-122.4647963208786,37.7390203251545]}},{"type":"Feature","properties":{"st_type":"AVE","cnn":"22781000","cnntext":"22781000","st_name":"CEDRO"},"geometry":{"type":"Point","coordinates":[-122.47031827510976,37.72715538680413]}},{"type":"Feature","properties":{"st_type":"ST","cnn":"27413000","cnntext":"27413000","st_name":"KIRKHAM"},"geometry":{"type":"Point","coordinates":[-122.48222116265117,37.759595723492176]}},{"type":"Feature","properties":{"st_type":"ST","cnn":"26054000","cnntext":"26054000","st_name":"PIERCE"},"geometry":{"type":"Point","coordinates":[-122.43486377208956,37.77728066539538]}},{"type":"Feature","properties":{"st_type":"ST","cnn":"27713000","cnntext":"27713000","st_name":"KIRKHAM"},"geometry":{"type":"Point","coordinates":[-122.49079440883018,37.759217525587665]}},{"type":"Feature","properties":{"st_type":"ST","cnn":"25914000","cnntext":"25914000","st_name":"FELL"},"geometry":{"type":"Point","coordinates":[-122.42432464931133,37.775753961899085]}},{"type":"Feature","properties":{"st_type":"DR","cnn":"23017000","cnntext":"23017000","st_name":"CAMBON"},"geometry":{"type":"Point","coordinates":[-122.47438270458518,37.7175074857486]}},{"type":"Feature","properties":{"st_type":"ST","cnn":"21243000","cnntext":"21243000","st_name":"NEWMAN"},"geometry":{"type":"Point","coordinates":[-122.41894019371702,37.73789660453028]}},{"type":"Feature","properties":{"st_type":"ST","cnn":"26776000","cnntext":"26776000","st_name":"BAY"},"geometry":{"type":"Point","coordinates":[-122.43497257566727,37.80284751488974]}},{"type":"Feature","properties":{"st_type":"ST","cnn":"25703000","cnntext":"25703000","st_name":"DOLORES"},"geometry":{"type":"Point","coordinates":[-122.42622847853792,37.763030870242886]}},{"type":"Feature","properties":{"st_type":"LN","cnn":"54189000","cnntext":"54189000","st_name":"ROSA PARKS"},"geometry":{"type":"Point","coordinates":[-122.4226066304845,37.76744441939177]}},{"type":"Feature","properties":{"st_type":"CT","cnn":"50796000","cnntext":"50796000","st_name":"REUEL"},"geometry":{"type":"Point","coordinates":[-122.38219033798015,37.73643322628881]}},{"type":"Feature","properties":{"st_type":"ST","cnn":"20142000","cnntext":"20142000","st_name":"INGALLS"},"geometry":{"type":"Point","coordinates":[-122.38736826108148,37.725354104651785]}},{"type":"Feature","properties":{"st_type":"ALY","cnn":"25161000","cnntext":"25161000","st_name":"MABEL"},"geometry":{"type":"Point","coordinates":[-122.41633077746826,37.78572651702684]}},{"type":"Feature","properties":{"st_type":"ST","cnn":"25983000","cnntext":"25983000","st_name":"HENRY"},"geometry":{"type":"Point","coordinates":[-122.4355481230504,37.766527891989355]}},{"type":"Feature","properties":{"st_type":"ST","cnn":"51482000","cnntext":"51482000","st_name":"FERNANDEZ"},"geometry":{"type":"Point","coordinates":[-122.45708904448031,37.79690960331553]}},{"type":"Feature","properties":{"st_type":"AVE","cnn":"51359000","cnntext":"51359000","st_name":"KOBBE"},"geometry":{"type":"Point","coordinates":[-122.47435273428577,37.798702784919016]}},{"type":"Feature","properties":{"st_type":"AVE","cnn":"25534000","cnntext":"25534000","st_name":"COLUMBUS"},"geometry":{"type":"Point","coordinates":[-122.4168183441491,37.80488716059723]}},{"type":"Feature","properties":{"st_type":"AVE","cnn":"33300000","cnntext":"33300000","st_name":"FAIR"},"geometry":{"type":"Point","coordinates":[-122.41785108012783,37.74477017232235]}},{"type":"Feature","properties":{"st_type":"ST","cnn":"20341000","cnntext":"20341000","st_name":"PEABODY"},"geometry":{"type":"Point","coordinates":[-122.40773363038257,37.70959004173952]}},{"type":"Feature","properties":{"st_type":"AVE","cnn":"26931000","cnntext":"26931000","st_name":"PARKER"},"geometry":{"type":"Point","coordinates":[-122.45461780258975,37.784029989293714]}},{"type":"Feature","properties":{"st_type":"AVE","cnn":"25274000","cnntext":"25274000","st_name":"PACIFIC"},"geometry":{"type":"Point","coordinates":[-122.41665275479666,37.79567005107667]}},{"type":"Feature","properties":{"st_type":"ST","cnn":"26271000","cnntext":"26271000","st_name":"17TH"},"geometry":{"type":"Point","coordinates":[-122.45057996918482,37.76156113865587]}},{"type":"Feature","properties":{"st_type":"ST","cnn":"33074000","cnntext":"33074000","st_name":"20TH"},"geometry":{"type":"Point","coordinates":[-122.40593403378597,37.75944580715052]}},{"type":"Feature","properties":{"st_type":"ST","cnn":"26343000","cnntext":"26343000","st_name":"PAGE"},"geometry":{"type":"Point","coordinates":[-122.44712270052217,37.770934641362125]}},{"type":"Feature","properties":{"st_type":"ST","cnn":"26266000","cnntext":"26266000","st_name":"COLE"},"geometry":{"type":"Point","coordinates":[-122.44912021444297,37.76164812569095]}},{"type":"Feature","properties":{"st_type":"ST","cnn":"27934000","cnntext":"27934000","st_name":"KIRKHAM"},"geometry":{"type":"Point","coordinates":[-122.50472545239825,37.75860639979089]}},{"type":"Feature","properties":{"st_type":"AVE","cnn":"22084000","cnntext":"22084000","st_name":"GENEVA"},"geometry":{"type":"Point","coordinates":[-122.44288707254283,37.71828685138312]}},{"type":"Feature","properties":{"st_type":"ST","cnn":"21712000","cnntext":"21712000","st_name":"EDINBURGH"},"geometry":{"type":"Point","coordinates":[-122.43318514321194,37.71968063717402]}},{"type":"Feature","properties":{"st_type":"ST","cnn":"26747000","cnntext":"26747000","st_name":"GREENWICH"},"geometry":{"type":"Point","coordinates":[-122.43586632019314,37.79895185005018]}},{"type":"Feature","properties":{"st_type":"ST","cnn":"24769000","cnntext":"24769000","st_name":"MONTGOMERY"},"geometry":{"type":"Point","coordinates":[-122.40379710331999,37.79789357700019]}},{"type":"Feature","properties":{"st_type":"AVE","cnn":"27133000","cnntext":"27133000","st_name":"14TH"},"geometry":{"type":"Point","coordinates":[-122.47116753777007,37.755098948873666]}},{"type":"Feature","properties":{"st_type":"BLVD","cnn":"32904000","cnntext":"32904000","st_name":"SLOAT"},"geometry":{"type":"Point","coordinates":[-122.50671742856741,37.73546975791746]}},{"type":"Feature","properties":{"st_type":"ST","cnn":"30067000","cnntext":"30067000","st_name":"UNION"},"geometry":{"type":"Point","coordinates":[-122.41162551582764,37.80013918998284]}},{"type":"Feature","properties":{"st_type":"ST","cnn":"24586000","cnntext":"24586000","st_name":"MABINI"},"geometry":{"type":"Point","coordinates":[-122.40037436716572,37.78264451528788]}},{"type":"Feature","properties":{"st_type":"ST","cnn":"24286000","cnntext":"24286000","st_name":"HOWARD"},"geometry":{"type":"Point","coordinates":[-122.4088326775241,37.77841553487331]}},{"type":"Feature","properties":{"st_type":"ST","cnn":"23670000","cnntext":"23670000","st_name":"CONNECTICUT"},"geometry":{"type":"Point","coordinates":[-122.39737175764988,37.76124221801808]}},{"type":"Feature","properties":{"st_type":"AVE","cnn":"22732000","cnntext":"22732000","st_name":"HOLLOWAY"},"geometry":{"type":"Point","coordinates":[-122.46973969169908,37.721644376088086]}},{"type":"Feature","properties":{"st_type":"ST","cnn":"24354000","cnntext":"24354000","st_name":"12TH"},"geometry":{"type":"Point","coordinates":[-122.41689981869614,37.77172394668559]}},{"type":"Feature","properties":{"st_type":"AVE","cnn":"54204000","cnntext":"54204000","st_name":"ZANOWITZ"},"geometry":{"type":"Point","coordinates":[-122.4518614127847,37.80542644860275]}},{"type":"Feature","properties":{"st_type":"RD","cnn":"51280000","cnntext":"51280000","st_name":"DEEMS"},"geometry":{"type":"Point","coordinates":[-122.46396807606628,37.79446698901919]}},{"type":"Feature","properties":{"st_type":"CT","cnn":"33679000","cnntext":"33679000","st_name":"RIDGE"},"geometry":{"type":"Point","coordinates":[-122.42607352714245,37.70934710886928]}},{"type":"Feature","properties":{"st_type":"ST","cnn":"24023000","cnntext":"24023000","st_name":"MARIPOSA"},"geometry":{"type":"Point","coordinates":[-122.40927981921925,37.76308602377312]}},{"type":"Feature","properties":{"st_type":"AVE","cnn":"21410000","cnntext":"21410000","st_name":"FRANCE"},"geometry":{"type":"Point","coordinates":[-122.43275390843363,37.71736010691637]}},{"type":"Feature","properties":{"st_type":"ST","cnn":"51273000","cnntext":"51273000","st_name":"HALLECK"},"geometry":{"type":"Point","coordinates":[-122.45482940587843,37.800983904712744]}},{"type":"Feature","properties":{"st_type":"ST","cnn":"54082000","cnntext":"54082000","st_name":"ALTA"},"geometry":{"type":"Point","coordinates":[-122.40354177638544,37.801629469404496]}},{"type":"Feature","properties":{"st_type":"BLVD","cnn":"23073000","cnntext":"23073000","st_name":"JUNIPERO SERRA"},"geometry":{"type":"Point","coordinates":[-122.47217813064408,37.730103919582064]}},{"type":"Feature","properties":{"st_type":"AVE","cnn":"21246000","cnntext":"21246000","st_name":"CORTLAND"},"geometry":{"type":"Point","coordinates":[-122.41858437636894,37.739297279966564]}},{"type":"Feature","properties":{"st_type":"AVE","cnn":"23022000","cnntext":"23022000","st_name":"HOLLOWAY"},"geometry":{"type":"Point","coordinates":[-122.47176027155245,37.721671203872354]}},{"type":"Feature","properties":{"st_type":"ST","cnn":"25877000","cnntext":"25877000","st_name":"MARKET"},"geometry":{"type":"Point","coordinates":[-122.42746205772221,37.76877049877058]}},{"type":"Feature","properties":{"st_type":null,"cnn":"52162000","cnntext":"52162000","st_name":"I-280 SOUTHBOUND"},"geometry":{"type":"Point","coordinates":[-122.39254779421904,37.76091148370775]}},{"type":"Feature","properties":{"st_type":"BLVD","cnn":"51275000","cnntext":"51275000","st_name":"LINCOLN"},"geometry":{"type":"Point","coordinates":[-122.45510149835972,37.80110324240781]}},{"type":"Feature","properties":{"st_type":"ST","cnn":"26433000","cnntext":"26433000","st_name":"STANYAN"},"geometry":{"type":"Point","coordinates":[-122.45335228880525,37.76824602503421]}},{"type":"Feature","properties":{"st_type":"ST","cnn":"23758000","cnntext":"23758000","st_name":"RHODE ISLAND"},"geometry":{"type":"Point","coordinates":[-122.40220317444678,37.76095059613353]}},{"type":"Feature","properties":{"st_type":"ST","cnn":"50057000","cnntext":"50057000","st_name":"LANGTON"},"geometry":{"type":"Point","coordinates":[-122.40455194819762,37.7732657834389]}},{"type":"Feature","properties":{"st_type":"ST","cnn":"20767000","cnntext":"20767000","st_name":"WATERVILLE"},"geometry":{"type":"Point","coordinates":[-122.40282498430413,37.73589124925171]}},{"type":"Feature","properties":{"st_type":"ST","cnn":"26752000","cnntext":"26752000","st_name":"CHESTNUT"},"geometry":{"type":"Point","coordinates":[-122.43460234440073,37.80102664048362]}},{"type":"Feature","properties":{"st_type":"ST","cnn":"26608000","cnntext":"26608000","st_name":"FILLMORE"},"geometry":{"type":"Point","coordinates":[-122.43345991623397,37.78702066744986]}},{"type":"Feature","properties":{"st_type":"AVE","cnn":"27873000","cnntext":"27873000","st_name":"40TH"},"geometry":{"type":"Point","coordinates":[-122.50038632107886,37.77370199089167]}},{"type":"Feature","properties":{"st_type":"ALY","cnn":"25839000","cnntext":"25839000","st_name":"ALERT"},"geometry":{"type":"Point","coordinates":[-122.42649069810597,37.76577360619295]}},{"type":"Feature","properties":{"st_type":"ST","cnn":"54055000","cnntext":"54055000","st_name":"ROSE"},"geometry":{"type":"Point","coordinates":[-122.42889839907082,37.772793342709136]}},{"type":"Feature","properties":{"st_type":"ST","cnn":"50893000","cnntext":"50893000","st_name":"COSGROVE"},"geometry":{"type":"Point","coordinates":[-122.40651492336393,37.7421899947422]}},{"type":"Feature","properties":{"st_type":"LN","cnn":"20086000","cnntext":"20086000","st_name":"BERTHA"},"geometry":{"type":"Point","coordinates":[-122.38128418186912,37.734033852486256]}},{"type":"Feature","properties":{"st_type":"ST","cnn":"24224000","cnntext":"24224000","st_name":"15TH"},"geometry":{"type":"Point","coordinates":[-122.413259822422,37.76706997473729]}},{"type":"Feature","properties":{"st_type":"WAY","cnn":"26985000","cnntext":"26985000","st_name":"RICO"},"geometry":{"type":"Point","coordinates":[-122.44032809863248,37.80549853307784]}},{"type":"Feature","properties":{"st_type":"CT","cnn":"54052000","cnntext":"54052000","st_name":"TORRENS"},"geometry":{"type":"Point","coordinates":[-122.41864775419535,37.793048710809174]}},{"type":"Feature","properties":{"st_type":"ST","cnn":"51855000","cnntext":"51855000","st_name":"GRIFFITH"},"geometry":{"type":"Point","coordinates":[-122.3751941361847,37.732621603486066]}},{"type":"Feature","properties":{"st_type":"ST","cnn":"24846000","cnntext":"24846000","st_name":"FRESNO"},"geometry":{"type":"Point","coordinates":[-122.40558828051198,37.798688227263405]}},{"type":"Feature","properties":{"st_type":null,"cnn":"51424000","cnntext":"51424000","st_name":"UNNAMED 077"},"geometry":{"type":"Point","coordinates":[-122.4751277232098,37.807408484602355]}},{"type":"Feature","properties":{"st_type":"ST","cnn":"25202000","cnntext":"25202000","st_name":"LARKIN"},"geometry":{"type":"Point","coordinates":[-122.418465026792,37.787966285833654]}},{"type":"Feature","properties":{"st_type":"PL","cnn":"24738000","cnntext":"24738000","st_name":"HARLAN"},"geometry":{"type":"Point","coordinates":[-122.40549818946191,37.790080540230086]}},{"type":"Feature","properties":{"st_type":"AVE","cnn":"51936000","cnntext":"51936000","st_name":"DONNER"},"geometry":{"type":"Point","coordinates":[-122.37333282273445,37.71264490733288]}},{"type":"Feature","properties":{"st_type":"ST","cnn":"27086000","cnntext":"27086000","st_name":"HUGO"},"geometry":{"type":"Point","coordinates":[-122.46316736900316,37.76511423987736]}},{"type":"Feature","properties":{"st_type":"ST","cnn":"35015000","cnntext":"35015000","st_name":"CORONA"},"geometry":{"type":"Point","coordinates":[-122.46659772738636,37.725924474411485]}},{"type":"Feature","properties":{"st_type":"ST","cnn":"21162000","cnntext":"21162000","st_name":"STONEMAN"},"geometry":{"type":"Point","coordinates":[-122.414173046718,37.74509545266442]}},{"type":"Feature","properties":{"st_type":"ST","cnn":"27525000","cnntext":"27525000","st_name":"FULTON"},"geometry":{"type":"Point","coordinates":[-122.48633406097754,37.77247157623393]}},{"type":"Feature","properties":{"st_type":"ST","cnn":"26042000","cnntext":"26042000","st_name":"STEINER"},"geometry":{"type":"Point","coordinates":[-122.4332187382331,37.77749036729351]}},{"type":"Feature","properties":{"st_type":"ST","cnn":"33345000","cnntext":"33345000","st_name":"SOMERSET"},"geometry":{"type":"Point","coordinates":[-122.40218848804288,37.714731325233245]}},{"type":"Feature","properties":{"st_type":"BLVD","cnn":"21110000","cnntext":"21110000","st_name":"BERNAL HEIGHTS"},"geometry":{"type":"Point","coordinates":[-122.4099684788837,37.743049855114286]}},{"type":"Feature","properties":{"st_type":"AVE","cnn":"22629000","cnntext":"22629000","st_name":"MIRAMAR"},"geometry":{"type":"Point","coordinates":[-122.45819139108269,37.724317535309154]}},{"type":"Feature","properties":{"st_type":"AVE","cnn":"25343000","cnntext":"25343000","st_name":"GRANT"},"geometry":{"type":"Point","coordinates":[-122.40758444331668,37.80063802097378]}},{"type":"Feature","properties":{"st_type":"ALY","cnn":"30721000","cnntext":"30721000","st_name":"DUNCOMBE"},"geometry":{"type":"Point","coordinates":[-122.40756376921443,37.79591029157699]}},{"type":"Feature","properties":{"st_type":"CT","cnn":"22050000","cnntext":"22050000","st_name":"GLORIA"},"geometry":{"type":"Point","coordinates":[-122.4416228406476,37.71725817332347]}},{"type":"Feature","properties":{"st_type":null,"cnn":"52307000","cnntext":"52307000","st_name":"I-80 WESTBOUND"},"geometry":{"type":"Point","coordinates":[-122.3881258449727,37.788553802008]}},{"type":"Feature","properties":{"st_type":"BLVD","cnn":"22910000","cnntext":"22910000","st_name":"SAINT FRANCIS"},"geometry":{"type":"Point","coordinates":[-122.46624768048522,37.73493714331504]}},{"type":"Feature","properties":{"st_type":"AVE","cnn":"51357000","cnntext":"51357000","st_name":"GREENOUGH"},"geometry":{"type":"Point","coordinates":[-122.47499073467287,37.79996118939824]}},{"type":"Feature","properties":{"st_type":"ST","cnn":"25477000","cnntext":"25477000","st_name":"STOCKTON"},"geometry":{"type":"Point","coordinates":[-122.41068505013347,37.80789213298332]}},{"type":"Feature","properties":{"st_type":"ST","cnn":"20458000","cnntext":"20458000","st_name":"JENNINGS"},"geometry":{"type":"Point","coordinates":[-122.39485204882237,37.72017522106324]}},{"type":"Feature","properties":{"st_type":"CT","cnn":"51329000","cnntext":"51329000","st_name":"RAMSEL"},"geometry":{"type":"Point","coordinates":[-122.47336516411465,37.805718962697554]}},{"type":"Feature","properties":{"st_type":"ST","cnn":"23920000","cnntext":"23920000","st_name":"GILBERT"},"geometry":{"type":"Point","coordinates":[-122.40421368836917,37.77470378964715]}},{"type":"Feature","properties":{"st_type":null,"cnn":"51190000","cnntext":"51190000","st_name":"UNNAMED 142"},"geometry":{"type":"Point","coordinates":[-122.45029798291314,37.79363838932104]}},{"type":"Feature","properties":{"st_type":"ST","cnn":"33655000","cnntext":"33655000","st_name":"22ND"},"geometry":{"type":"Point","coordinates":[-122.38548930912604,37.758109477703826]}},{"type":"Feature","properties":{"st_type":"AVE","cnn":"22977000","cnntext":"22977000","st_name":"SOTELO"},"geometry":{"type":"Point","coordinates":[-122.46376155457702,37.74860701498308]}},{"type":"Feature","properties":{"st_type":"ST","cnn":"51206000","cnntext":"51206000","st_name":"RUGER"},"geometry":{"type":"Point","coordinates":[-122.44802963685756,37.79743311801623]}},{"type":"Feature","properties":{"st_type":"AVE","cnn":"26926000","cnntext":"26926000","st_name":"EUCLID"},"geometry":{"type":"Point","coordinates":[-122.45187543765608,37.78412674126629]}},{"type":"Feature","properties":{"st_type":"DR","cnn":"27034000","cnntext":"27034000","st_name":"CHRISTOPHER"},"geometry":{"type":"Point","coordinates":[-122.46015666975013,37.75373760827913]}},{"type":"Feature","properties":{"st_type":"ST","cnn":"34076000","cnntext":"34076000","st_name":"09TH TI"},"geometry":{"type":"Point","coordinates":[-122.36763536801024,37.82626562304975]}},{"type":"Feature","properties":{"st_type":"ST","cnn":"35055000","cnntext":"35055000","st_name":"PIOCHE"},"geometry":{"type":"Point","coordinates":[-122.42288272409347,37.727909038053845]}},{"type":"Feature","properties":{"st_type":"ST","cnn":"23944000","cnntext":"23944000","st_name":"05TH"},"geometry":{"type":"Point","coordinates":[-122.40493334675597,37.78149950849666]}},{"type":"Feature","properties":{"st_type":"AVE","cnn":"23211000","cnntext":"23211000","st_name":"21ST"},"geometry":{"type":"Point","coordinates":[-122.47822416072836,37.74855090373325]}},{"type":"Feature","properties":{"st_type":"ST","cnn":"26194000","cnntext":"26194000","st_name":"CLAYTON"},"geometry":{"type":"Point","coordinates":[-122.44634347474168,37.76041069847342]}},{"type":"Feature","properties":{"st_type":"AVE","cnn":"20321000","cnntext":"20321000","st_name":"TEDDY"},"geometry":{"type":"Point","coordinates":[-122.40209790843399,37.71299484220449]}},{"type":"Feature","properties":{"st_type":"ST","cnn":"20913000","cnntext":"20913000","st_name":"BURROWS"},"geometry":{"type":"Point","coordinates":[-122.4110077417776,37.72702632444237]}},{"type":"Feature","properties":{"st_type":"AVE","cnn":"21539000","cnntext":"21539000","st_name":"WHIPPLE"},"geometry":{"type":"Point","coordinates":[-122.44812971874111,37.711116452057595]}},{"type":"Feature","properties":{"st_type":"ST","cnn":"21552000","cnntext":"21552000","st_name":"MISSION"},"geometry":{"type":"Point","coordinates":[-122.45266472108827,37.70880633741904]}},{"type":"Feature","properties":{"st_type":"ST","cnn":"32916000","cnntext":"32916000","st_name":"WILLARD"},"geometry":{"type":"Point","coordinates":[-122.45374467339487,37.7618787844303]}},{"type":"Feature","properties":{"st_type":"ST","cnn":"20923000","cnntext":"20923000","st_name":"HAMILTON"},"geometry":{"type":"Point","coordinates":[-122.41139440354588,37.730607896282706]}},{"type":"Feature","properties":{"st_type":"ST","cnn":"25917000","cnntext":"25917000","st_name":"LINDEN"},"geometry":{"type":"Point","coordinates":[-122.42288271252531,37.77641581765694]}},{"type":"Feature","properties":{"st_type":"ST","cnn":"23418000","cnntext":"23418000","st_name":"QUINTARA"},"geometry":{"type":"Point","coordinates":[-122.49483674770266,37.74781712172072]}},{"type":"Feature","properties":{"st_type":"AVE","cnn":"33230000","cnntext":"33230000","st_name":"KEY"},"geometry":{"type":"Point","coordinates":[-122.39236229405975,37.7154944742]}},{"type":"Feature","properties":{"st_type":"ST","cnn":"26996000","cnntext":"26996000","st_name":"JEFFERSON"},"geometry":{"type":"Point","coordinates":[-122.44212570104384,37.80484989199046]}},{"type":"Feature","properties":{"st_type":"AVE","cnn":"22250000","cnntext":"22250000","st_name":"VALDEZ"},"geometry":{"type":"Point","coordinates":[-122.45478367407152,37.7288095960279]}},{"type":"Feature","properties":{"st_type":"AVE","cnn":"52239000","cnntext":"52239000","st_name":"OCEAN"},"geometry":{"type":"Point","coordinates":[-122.44917813046399,37.72300293793908]}},{"type":"Feature","properties":{"st_type":"CT","cnn":"21558000","cnntext":"21558000","st_name":"FREDSON"},"geometry":{"type":"Point","coordinates":[-122.447389311247,37.71377599124781]}},{"type":"Feature","properties":{"st_type":"ST","cnn":"26035000","cnntext":"26035000","st_name":"PAGE"},"geometry":{"type":"Point","coordinates":[-122.43889910175893,37.771990423818735]}},{"type":"Feature","properties":{"st_type":null,"cnn":"52064000","cnntext":"52064000","st_name":"UNNAMED 120"},"geometry":{"type":"Point","coordinates":[-122.43863542766562,37.72815636762969]}},{"type":"Feature","properties":{"st_type":"ST","cnn":"26589000","cnntext":"26589000","st_name":"FILLMORE"},"geometry":{"type":"Point","coordinates":[-122.43270617972193,37.78329259162349]}},{"type":"Feature","properties":{"st_type":"AVE","cnn":"51197000","cnntext":"51197000","st_name":"LIGGETT"},"geometry":{"type":"Point","coordinates":[-122.45196195444672,37.79507961560836]}},{"type":"Feature","properties":{"st_type":"ST","cnn":"24965000","cnntext":"24965000","st_name":"JONES"},"geometry":{"type":"Point","coordinates":[-122.41335396372544,37.78766359876849]}},{"type":"Feature","properties":{"st_type":"ST","cnn":"22692000","cnntext":"22692000","st_name":"GARFIELD"},"geometry":{"type":"Point","coordinates":[-122.46446085537549,37.719692186736516]}},{"type":"Feature","properties":{"st_type":"AVE","cnn":"21689000","cnntext":"21689000","st_name":"SILVER"},"geometry":{"type":"Point","coordinates":[-122.42820890172726,37.72854513729364]}},{"type":"Feature","properties":{"st_type":"ST","cnn":"25827000","cnntext":"25827000","st_name":"MARKET"},"geometry":{"type":"Point","coordinates":[-122.43729871996628,37.76189547440291]}},{"type":"Feature","properties":{"st_type":"RD","cnn":"26223000","cnntext":"26223000","st_name":"CHRISTMAS TREE POINT"},"geometry":{"type":"Point","coordinates":[-122.44720982950024,37.7540428911214]}},{"type":"Feature","properties":{"st_type":"ST","cnn":"26637000","cnntext":"26637000","st_name":"STEINER"},"geometry":{"type":"Point","coordinates":[-122.43567327763009,37.78962925742742]}},{"type":"Feature","properties":{"st_type":"ST","cnn":"30758000","cnntext":"30758000","st_name":"MARKET"},"geometry":{"type":"Point","coordinates":[-122.4263094381509,37.769602597314986]}},{"type":"Feature","properties":{"st_type":"ST","cnn":"30018000","cnntext":"30018000","st_name":"HARRISON"},"geometry":{"type":"Point","coordinates":[-122.39409927181224,37.785149309022174]}},{"type":"Feature","properties":{"st_type":"ST","cnn":"51873000","cnntext":"51873000","st_name":"TENNESSEE"},"geometry":{"type":"Point","coordinates":[-122.38824374076496,37.74772144156408]}},{"type":"Feature","properties":{"st_type":"ST","cnn":"34112000","cnntext":"34112000","st_name":"14TH TI"},"geometry":{"type":"Point","coordinates":[-122.37018720194682,37.83005546306171]}},{"type":"Feature","properties":{"st_type":"ST","cnn":"25303000","cnntext":"25303000","st_name":"WASHINGTON"},"geometry":{"type":"Point","coordinates":[-122.42122998102613,37.7932578677921]}},{"type":"Feature","properties":{"st_type":"AVE","cnn":"27649000","cnntext":"27649000","st_name":"23RD"},"geometry":{"type":"Point","coordinates":[-122.48300474810156,37.785834605887814]}},{"type":"Feature","properties":{"st_type":"ST","cnn":"54030000","cnntext":"54030000","st_name":"GROVE"},"geometry":{"type":"Point","coordinates":[-122.42871672721986,37.77709965382025]}},{"type":"Feature","properties":{"st_type":"AVE","cnn":"27940000","cnntext":"27940000","st_name":"47TH"},"geometry":{"type":"Point","coordinates":[-122.50686795259321,37.758512653521336]}},{"type":"Feature","properties":{"st_type":"ST","cnn":"26138000","cnntext":"26138000","st_name":"DOUGLASS"},"geometry":{"type":"Point","coordinates":[-122.43916730846351,37.75902774775]}},{"type":"Feature","properties":{"st_type":"ST","cnn":"27298000","cnntext":"27298000","st_name":"BALBOA"},"geometry":{"type":"Point","coordinates":[-122.47150599445501,37.77689255619794]}},{"type":"Feature","properties":{"st_type":"AVE","cnn":"27787000","cnntext":"27787000","st_name":"40TH"},"geometry":{"type":"Point","coordinates":[-122.49949663518599,37.76070860581094]}},{"type":"Feature","properties":{"st_type":"AVE","cnn":"21503000","cnntext":"21503000","st_name":"ELLINGTON"},"geometry":{"type":"Point","coordinates":[-122.44679998032522,37.71216078107553]}},{"type":"Feature","properties":{"st_type":"ST","cnn":"21932000","cnntext":"21932000","st_name":"ROANOKE"},"geometry":{"type":"Point","coordinates":[-122.43134892088953,37.73661789388128]}},{"type":"Feature","properties":{"st_type":"AVE","cnn":"27683000","cnntext":"27683000","st_name":"30TH"},"geometry":{"type":"Point","coordinates":[-122.488517234255,37.757447800947936]}},{"type":"Feature","properties":{"st_type":"ST","cnn":"22944000","cnntext":"22944000","st_name":"WAWONA"},"geometry":{"type":"Point","coordinates":[-122.46966702241812,37.738505273360225]}},{"type":"Feature","properties":{"st_type":"ALY","cnn":"28058000","cnntext":"28058000","st_name":"JACK LONDON"},"geometry":{"type":"Point","coordinates":[-122.39409283696301,37.781691312680245]}},{"type":"Feature","properties":{"st_type":"ST","cnn":"34067000","cnntext":"34067000","st_name":"08TH TI"},"geometry":{"type":"Point","coordinates":[-122.36847076927326,37.82482777551061]}},{"type":"Feature","properties":{"st_type":null,"cnn":"50284000","cnntext":"50284000","st_name":"FORT MASON 10"},"geometry":{"type":"Point","coordinates":[-122.42816361044835,37.805062886690685]}},{"type":"Feature","properties":{"st_type":"ST","cnn":"21968000","cnntext":"21968000","st_name":"SURREY"},"geometry":{"type":"Point","coordinates":[-122.43507656205769,37.73557723863514]}},{"type":"Feature","properties":{"st_type":"AVE","cnn":"27060000","cnntext":"27060000","st_name":"HILLWAY"},"geometry":{"type":"Point","coordinates":[-122.45666991172976,37.76381468854904]}},{"type":"Feature","properties":{"st_type":"ST","cnn":"23971000","cnntext":"23971000","st_name":"BRYANT"},"geometry":{"type":"Point","coordinates":[-122.409433068639,37.75599844199572]}},{"type":"Feature","properties":{"st_type":"AVE","cnn":"25462000","cnntext":"25462000","st_name":"COLUMBUS"},"geometry":{"type":"Point","coordinates":[-122.41290808538193,37.802183771181305]}},{"type":"Feature","properties":{"st_type":"ST","cnn":"23907000","cnntext":"23907000","st_name":"CLARA"},"geometry":{"type":"Point","coordinates":[-122.40014963735547,37.781217520429074]}},{"type":"Feature","properties":{"st_type":"AVE","cnn":"22588000","cnntext":"22588000","st_name":"MIRAMAR"},"geometry":{"type":"Point","coordinates":[-122.45818925661514,37.72365751056449]}},{"type":"Feature","properties":{"st_type":"ST","cnn":"24165000","cnntext":"24165000","st_name":"MISSION"},"geometry":{"type":"Point","coordinates":[-122.41951273676816,37.76342927308283]}},{"type":"Feature","properties":{"st_type":"ST","cnn":"25191000","cnntext":"25191000","st_name":"FRANKLIN"},"geometry":{"type":"Point","coordinates":[-122.42246374351751,37.782685368393565]}},{"type":"Feature","properties":{"st_type":"RAMP","cnn":"52155000","cnntext":"52155000","st_name":"HWY 101 N ON"},"geometry":{"type":"Point","coordinates":[-122.40278772099128,37.75280758458405]}},{"type":"Feature","properties":{"st_type":"AVE","cnn":"23673000","cnntext":"23673000","st_name":"PENNSYLVANIA"},"geometry":{"type":"Point","coordinates":[-122.39384798317451,37.76530672532918]}},{"type":"Feature","properties":{"st_type":"DR","cnn":"22759000","cnntext":"22759000","st_name":"UPLAND"},"geometry":{"type":"Point","coordinates":[-122.464056167032,37.72952482888727]}},{"type":"Feature","properties":{"st_type":"AVE","cnn":"21972000","cnntext":"21972000","st_name":"CHILTON"},"geometry":{"type":"Point","coordinates":[-122.43667288943632,37.734040174468326]}},{"type":"Feature","properties":{"st_type":"WAY","cnn":"22911000","cnntext":"22911000","st_name":"SAN BENITO"},"geometry":{"type":"Point","coordinates":[-122.46699849006603,37.733092141821366]}},{"type":"Feature","properties":{"st_type":"ST","cnn":"33626000","cnntext":"33626000","st_name":"22ND"},"geometry":{"type":"Point","coordinates":[-122.40525954218414,37.756920438604794]}},{"type":"Feature","properties":{"st_type":"ST","cnn":"27700000","cnntext":"27700000","st_name":"MORAGA"},"geometry":{"type":"Point","coordinates":[-122.49375076892643,37.75535092219455]}},{"type":"Feature","properties":{"st_type":"ST","cnn":"20861000","cnntext":"20861000","st_name":"HOLYOKE"},"geometry":{"type":"Point","coordinates":[-122.40754148529045,37.723940983741905]}},{"type":"Feature","properties":{"st_type":null,"cnn":"52136000","cnntext":"52136000","st_name":"I-280 SOUTHBOUND"},"geometry":{"type":"Point","coordinates":[-122.45120812392946,37.71429395507734]}},{"type":"Feature","properties":{"st_type":"AVE","cnn":"33600000","cnntext":"33600000","st_name":"PLYMOUTH"},"geometry":{"type":"Point","coordinates":[-122.45654944748547,37.725419307732516]}},{"type":"Feature","properties":{"st_type":"ST","cnn":"23786000","cnntext":"23786000","st_name":"07TH"},"geometry":{"type":"Point","coordinates":[-122.39582644013186,37.76716595691071]}},{"type":"Feature","properties":{"st_type":"AVE","cnn":"24440000","cnntext":"24440000","st_name":"GOLDEN GATE"},"geometry":{"type":"Point","coordinates":[-122.41714561229927,37.781447494891694]}},{"type":"Feature","properties":{"st_type":"AVE","cnn":"51930000","cnntext":"51930000","st_name":"EGBERT"},"geometry":{"type":"Point","coordinates":[-122.37018250144801,37.70991064673898]}},{"type":"Feature","properties":{"st_type":"ST","cnn":"23715000","cnntext":"23715000","st_name":"26TH"},"geometry":{"type":"Point","coordinates":[-122.40218351822918,37.75058076240219]}},{"type":"Feature","properties":{"st_type":"AVE","cnn":"22208000","cnntext":"22208000","st_name":"GRAFTON"},"geometry":{"type":"Point","coordinates":[-122.453091959482,37.72004059007298]}},{"type":"Feature","properties":{"st_type":"ST","cnn":"26969000","cnntext":"26969000","st_name":"CHESTNUT"},"geometry":{"type":"Point","coordinates":[-122.44030960592568,37.800301007678094]}},{"type":"Feature","properties":{"st_type":"AVE","cnn":"26850000","cnntext":"26850000","st_name":"PRESIDIO"},"geometry":{"type":"Point","coordinates":[-122.44714800810036,37.78907138749728]}},{"type":"Feature","properties":{"st_type":"RD","cnn":"52192000","cnntext":"52192000","st_name":"EAST"},"geometry":{"type":"Point","coordinates":[-122.44797726421368,37.72454837722396]}},{"type":"Feature","properties":{"st_type":"AVE","cnn":"20011000","cnntext":"20011000","st_name":"INGERSON"},"geometry":{"type":"Point","coordinates":[-122.38813050985425,37.716298216394385]}},{"type":"Feature","properties":{"st_type":"ST","cnn":"25609000","cnntext":"25609000","st_name":"CLIPPER"},"geometry":{"type":"Point","coordinates":[-122.42492299938347,37.74943490194747]}},{"type":"Feature","properties":{"st_type":"AVE","cnn":"26295000","cnntext":"26295000","st_name":"BELMONT"},"geometry":{"type":"Point","coordinates":[-122.45494608113879,37.763178701368055]}},{"type":"Feature","properties":{"st_type":"DR","cnn":"23098000","cnntext":"23098000","st_name":"SERRANO"},"geometry":{"type":"Point","coordinates":[-122.48310424005302,37.71910902806407]}},{"type":"Feature","properties":{"st_type":"DR","cnn":"22705000","cnntext":"22705000","st_name":"URBANO"},"geometry":{"type":"Point","coordinates":[-122.46421352177809,37.725185341647084]}},{"type":"Feature","properties":{"st_type":"AVE","cnn":"27762000","cnntext":"27762000","st_name":"41ST"},"geometry":{"type":"Point","coordinates":[-122.50017298909835,37.75505278953905]}},{"type":"Feature","properties":{"st_type":"ALY","cnn":"32967000","cnntext":"32967000","st_name":"IRON"},"geometry":{"type":"Point","coordinates":[-122.44510562990772,37.756960752167075]}},{"type":"Feature","properties":{"st_type":"ST","cnn":"50699000","cnntext":"50699000","st_name":"JESSIE"},"geometry":{"type":"Point","coordinates":[-122.41682299042365,37.77539824383637]}},{"type":"Feature","properties":{"st_type":"AVE","cnn":"24751000","cnntext":"24751000","st_name":"GRANT"},"geometry":{"type":"Point","coordinates":[-122.40593811901206,37.79245075238129]}},{"type":"Feature","properties":{"st_type":"ST","cnn":"26518000","cnntext":"26518000","st_name":"HOLLIS"},"geometry":{"type":"Point","coordinates":[-122.43023750072227,37.783595357532235]}},{"type":"Feature","properties":{"st_type":"WAY","cnn":"25216000","cnntext":"25216000","st_name":"PETER YORKE"},"geometry":{"type":"Point","coordinates":[-122.42321387189538,37.78640231957549]}},{"type":"Feature","properties":{"st_type":"ST","cnn":"24294000","cnntext":"24294000","st_name":"JESSIE"},"geometry":{"type":"Point","coordinates":[-122.4092454428639,37.781398134354184]}},{"type":"Feature","properties":{"st_type":"ST","cnn":"26756000","cnntext":"26756000","st_name":"NORTH POINT"},"geometry":{"type":"Point","coordinates":[-122.43352470523615,37.80403345530512]}},{"type":"Feature","properties":{"st_type":"BLVD","cnn":"25197000","cnntext":"25197000","st_name":"GEARY"},"geometry":{"type":"Point","coordinates":[-122.42139330776838,37.785685802403705]}},{"type":"Feature","properties":{"st_type":"AVE","cnn":"22493000","cnntext":"22493000","st_name":"ORIZABA"},"geometry":{"type":"Point","coordinates":[-122.46258065823237,37.71252303391956]}},{"type":"Feature","properties":{"st_type":"DR","cnn":"23102000","cnntext":"23102000","st_name":"TAPIA"},"geometry":{"type":"Point","coordinates":[-122.48066940615013,37.72097222400007]}},{"type":"Feature","properties":{"st_type":"ST","cnn":"21937000","cnntext":"21937000","st_name":"SUSSEX"},"geometry":{"type":"Point","coordinates":[-122.4325354284946,37.735853647786385]}},{"type":"Feature","properties":{"st_type":"ST","cnn":"23955000","cnntext":"23955000","st_name":"25TH"},"geometry":{"type":"Point","coordinates":[-122.4089778469344,37.75120079637172]}},{"type":"Feature","properties":{"st_type":"AVE","cnn":"21058000","cnntext":"21058000","st_name":"JARBOE"},"geometry":{"type":"Point","coordinates":[-122.41087894150517,37.73815553859154]}},{"type":"Feature","properties":{"st_type":"WAY","cnn":"54102000","cnntext":"54102000","st_name":"CAMPUS"},"geometry":{"type":"Point","coordinates":[-122.39255057797271,37.767677793119]}},{"type":"Feature","properties":{"st_type":"ST","cnn":"20384000","cnntext":"20384000","st_name":"BRITTON"},"geometry":{"type":"Point","coordinates":[-122.41202024306811,37.71380932243829]}},{"type":"Feature","properties":{"st_type":"AVE","cnn":"27824000","cnntext":"27824000","st_name":"34TH"},"geometry":{"type":"Point","coordinates":[-122.49383247946663,37.7721296619679]}},{"type":"Feature","properties":{"st_type":"ST","cnn":"25485000","cnntext":"25485000","st_name":"MASON"},"geometry":{"type":"Point","coordinates":[-122.41397500769021,37.80748251288475]}},{"type":"Feature","properties":{"st_type":"AVE","cnn":"33404000","cnntext":"33404000","st_name":"SANTA ROSA"},"geometry":{"type":"Point","coordinates":[-122.44118854044136,37.72939392941118]}},{"type":"Feature","properties":{"st_type":"ST","cnn":"24462000","cnntext":"24462000","st_name":"MCALLISTER"},"geometry":{"type":"Point","coordinates":[-122.41859850918621,37.78026013298776]}},{"type":"Feature","properties":{"st_type":"PL","cnn":"50238000","cnntext":"50238000","st_name":"PAGODA"},"geometry":{"type":"Point","coordinates":[-122.40733358302614,37.79345861953751]}},{"type":"Feature","properties":{"st_type":"ST","cnn":"25767000","cnntext":"25767000","st_name":"23RD"},"geometry":{"type":"Point","coordinates":[-122.4374935880379,37.75269700229204]}},{"type":"Feature","properties":{"st_type":"ST","cnn":"20302000","cnntext":"20302000","st_name":"BRUSSELS"},"geometry":{"type":"Point","coordinates":[-122.40060472566682,37.715114506848884]}},{"type":"Feature","properties":{"st_type":"RD","cnn":"51338000","cnntext":"51338000","st_name":"ARMISTEAD"},"geometry":{"type":"Point","coordinates":[-122.4699944697494,37.80470129801437]}},{"type":"Feature","properties":{"st_type":"AVE","cnn":"22639000","cnntext":"22639000","st_name":"MONTECITO"},"geometry":{"type":"Point","coordinates":[-122.45650411667647,37.72971764562939]}},{"type":"Feature","properties":{"st_type":"ST","cnn":"24680000","cnntext":"24680000","st_name":"BUSH"},"geometry":{"type":"Point","coordinates":[-122.40112990458887,37.79112799317401]}},{"type":"Feature","properties":{"st_type":"AVE","cnn":"22271000","cnntext":"22271000","st_name":"STILLINGS"},"geometry":{"type":"Point","coordinates":[-122.44119682118277,37.73441541882013]}},{"type":"Feature","properties":{"st_type":"ST","cnn":"21046000","cnntext":"21046000","st_name":"FOLSOM"},"geometry":{"type":"Point","coordinates":[-122.41368901880367,37.73473161530038]}},{"type":"Feature","properties":{"st_type":"ST","cnn":"20575000","cnntext":"20575000","st_name":"WHEAT"},"geometry":{"type":"Point","coordinates":[-122.40007300133762,37.72344678141528]}},{"type":"Feature","properties":{"st_type":"ST","cnn":"23183000","cnntext":"23183000","st_name":"TARAVAL"},"geometry":{"type":"Point","coordinates":[-122.47564446795691,37.74305181261329]}},{"type":"Feature","properties":{"st_type":"ST","cnn":"25000000","cnntext":"25000000","st_name":"POWELL"},"geometry":{"type":"Point","coordinates":[-122.40891978200358,37.790812879028415]}},{"type":"Feature","properties":{"st_type":"ST","cnn":"25966000","cnntext":"25966000","st_name":"WEBSTER"},"geometry":{"type":"Point","coordinates":[-122.43023323641778,37.779782794204344]}},{"type":"Feature","properties":{"st_type":"ST","cnn":"22727000","cnntext":"22727000","st_name":"MONTICELLO"},"geometry":{"type":"Point","coordinates":[-122.4707520037276,37.71964622276825]}},{"type":"Feature","properties":{"st_type":"AVE","cnn":"50835000","cnntext":"50835000","st_name":"TOCOLOMA"},"geometry":{"type":"Point","coordinates":[-122.39890636036687,37.70954289638971]}},{"type":"Feature","properties":{"st_type":"DR","cnn":"33485000","cnntext":"33485000","st_name":"TAPIA"},"geometry":{"type":"Point","coordinates":[-122.48230562056463,37.72178468658929]}},{"type":"Feature","properties":{"st_type":"WAY","cnn":"54091000","cnntext":"54091000","st_name":"CAMPUS"},"geometry":{"type":"Point","coordinates":[-122.38928673543721,37.767874419777264]}},{"type":"Feature","properties":{"st_type":"TER","cnn":"26019000","cnntext":"26019000","st_name":"ALPINE"},"geometry":{"type":"Point","coordinates":[-122.4378024489861,37.77021376020117]}},{"type":"Feature","properties":{"st_type":"ST","cnn":"24012000","cnntext":"24012000","st_name":"BRYANT"},"geometry":{"type":"Point","coordinates":[-122.40999715779613,37.76048526410475]}},{"type":"Feature","properties":{"st_type":"ST","cnn":"26701000","cnntext":"26701000","st_name":"POLK"},"geometry":{"type":"Point","coordinates":[-122.42346605310334,37.80435492477317]}},{"type":"Feature","properties":{"st_type":"ST","cnn":"23680000","cnntext":"23680000","st_name":"MARIPOSA"},"geometry":{"type":"Point","coordinates":[-122.39664451528436,37.76385061922383]}},{"type":"Feature","properties":{"st_type":"ST","cnn":"33065000","cnntext":"33065000","st_name":"CESAR CHAVEZ"},"geometry":{"type":"Point","coordinates":[-122.39141836792729,37.75014060624166]}},{"type":"Feature","properties":{"st_type":"ST","cnn":"25411000","cnntext":"25411000","st_name":"VALLEJO"},"geometry":{"type":"Point","coordinates":[-122.41045615789179,37.79837270364086]}},{"type":"Feature","properties":{"st_type":"ALY","cnn":"32989000","cnntext":"32989000","st_name":"BAXTER"},"geometry":{"type":"Point","coordinates":[-122.45970712595302,37.73550437622618]}},{"type":"Feature","properties":{"st_type":"AVE","cnn":"23087000","cnntext":"23087000","st_name":"22ND"},"geometry":{"type":"Point","coordinates":[-122.47784737811783,37.73261090197129]}},{"type":"Feature","properties":{"st_type":"LN","cnn":"32910000","cnntext":"32910000","st_name":"OAKHURST"},"geometry":{"type":"Point","coordinates":[-122.45989897146673,37.75732042176704]}},{"type":"Feature","properties":{"st_type":"ST","cnn":"23473000","cnntext":"23473000","st_name":"QUINTARA"},"geometry":{"type":"Point","coordinates":[-122.49965413804001,37.74760467845642]}},{"type":"Feature","properties":{"st_type":"ST","cnn":"33563000","cnntext":"33563000","st_name":"YORBA"},"geometry":{"type":"Point","coordinates":[-122.4940148770026,37.735023413494346]}},{"type":"Feature","properties":{"st_type":"ST","cnn":"24494000","cnntext":"24494000","st_name":"HARRISON"},"geometry":{"type":"Point","coordinates":[-122.3929366851688,37.786067532347765]}},{"type":"Feature","properties":{"st_type":"ST","cnn":"23891000","cnntext":"23891000","st_name":"BRANNAN"},"geometry":{"type":"Point","coordinates":[-122.40151810742442,37.77438465584148]}},{"type":"Feature","properties":{"st_type":"ST","cnn":"26954000","cnntext":"26954000","st_name":"WALNUT"},"geometry":{"type":"Point","coordinates":[-122.44901156407175,37.78972678641707]}},{"type":"Feature","properties":{"st_type":"ST","cnn":"25473000","cnntext":"25473000","st_name":"MASON"},"geometry":{"type":"Point","coordinates":[-122.41360416883249,37.805618479887535]}},{"type":"Feature","properties":{"st_type":"DR","cnn":"23135000","cnntext":"23135000","st_name":"GELLERT"},"geometry":{"type":"Point","coordinates":[-122.4865158369895,37.72980181862445]}},{"type":"Feature","properties":{"st_type":"ST","cnn":"21183000","cnntext":"21183000","st_name":"ELLSWORTH"},"geometry":{"type":"Point","coordinates":[-122.41482888039602,37.735965166951694]}},{"type":"Feature","properties":{"st_type":"ST","cnn":"21899000","cnntext":"21899000","st_name":"CHURCH"},"geometry":{"type":"Point","coordinates":[-122.4268911889225,37.74609876792783]}},{"type":"Feature","properties":{"st_type":"AVE","cnn":"24655000","cnntext":"24655000","st_name":"GRANT"},"geometry":{"type":"Point","coordinates":[-122.4050413988649,37.78776549565189]}},{"type":"Feature","properties":{"st_type":"ST","cnn":"23604000","cnntext":"23604000","st_name":"HARRISON"},"geometry":{"type":"Point","coordinates":[-122.38848118731593,37.78957191881665]}},{"type":"Feature","properties":{"st_type":"ST","cnn":"25629000","cnntext":"25629000","st_name":"21ST"},"geometry":{"type":"Point","coordinates":[-122.42444265954231,37.756701819536595]}},{"type":"Feature","properties":{"st_type":"BLVD","cnn":"32892000","cnntext":"32892000","st_name":"SLOAT"},"geometry":{"type":"Point","coordinates":[-122.4924180500372,37.73387897748129]}},{"type":"Feature","properties":{"st_type":"LN","cnn":"54013000","cnntext":"54013000","st_name":"INCA"},"geometry":{"type":"Point","coordinates":[-122.42913073259261,37.7836557600663]}},{"type":"Feature","properties":{"st_type":"ST","cnn":"34014000","cnntext":"34014000","st_name":"GREEN"},"geometry":{"type":"Point","coordinates":[-122.39913024252164,37.80089647712546]}},{"type":"Feature","properties":{"st_type":"ST","cnn":"33611000","cnntext":"33611000","st_name":"DETROIT"},"geometry":{"type":"Point","coordinates":[-122.44429996535732,37.73151830384144]}},{"type":"Feature","properties":{"st_type":"ST","cnn":"21950000","cnntext":"21950000","st_name":"DIGBY"},"geometry":{"type":"Point","coordinates":[-122.43124187605487,37.73835694619443]}},{"type":"Feature","properties":{"st_type":"ST","cnn":"21494000","cnntext":"21494000","st_name":"GUTTENBERG"},"geometry":{"type":"Point","coordinates":[-122.44333536954466,37.71055458076985]}},{"type":"Feature","properties":{"st_type":"AVE","cnn":"22079000","cnntext":"22079000","st_name":"OCEAN"},"geometry":{"type":"Point","coordinates":[-122.44327377929044,37.72308504845197]}},{"type":"Feature","properties":{"st_type":"AVE","cnn":"21223000","cnntext":"21223000","st_name":"POWHATTAN"},"geometry":{"type":"Point","coordinates":[-122.41630588097905,37.741637313196264]}},{"type":"Feature","properties":{"st_type":"ST","cnn":"35022000","cnntext":"35022000","st_name":"MARY TERESA"},"geometry":{"type":"Point","coordinates":[-122.39826589516905,37.71369335022513]}},{"type":"Feature","properties":{"st_type":"AVE","cnn":"51494000","cnntext":"51494000","st_name":"LUPINE"},"geometry":{"type":"Point","coordinates":[-122.44792726128098,37.78375220190537]}},{"type":"Feature","properties":{"st_type":"ST","cnn":"27976000","cnntext":"27976000","st_name":"FULTON"},"geometry":{"type":"Point","coordinates":[-122.50882317067843,37.77144551686148]}},{"type":"Feature","properties":{"st_type":"ST","cnn":"25657000","cnntext":"25657000","st_name":"SEVERN"},"geometry":{"type":"Point","coordinates":[-122.42702333214284,37.753326112412424]}},{"type":"Feature","properties":{"st_type":"RAMP","cnn":"50077000","cnntext":"50077000","st_name":"I-80 W ON"},"geometry":{"type":"Point","coordinates":[-122.40636853439533,37.775456813502]}},{"type":"Feature","properties":{"st_type":"ST","cnn":"27882000","cnntext":"27882000","st_name":"CABRILLO"},"geometry":{"type":"Point","coordinates":[-122.50360858539798,37.773554325480106]}},{"type":"Feature","properties":{"st_type":"AVE","cnn":"22904000","cnntext":"22904000","st_name":"SAN ANSELMO"},"geometry":{"type":"Point","coordinates":[-122.4648971450603,37.73359863687196]}},{"type":"Feature","properties":{"st_type":"ST","cnn":"25119000","cnntext":"25119000","st_name":"JONES"},"geometry":{"type":"Point","coordinates":[-122.41464763161171,37.79410980671243]}},{"type":"Feature","properties":{"st_type":"AVE","cnn":"22346000","cnntext":"22346000","st_name":"BURNETT"},"geometry":{"type":"Point","coordinates":[-122.44502166447535,37.74836927254979]}},{"type":"Feature","properties":{"st_type":"AVE","cnn":"22123000","cnntext":"22123000","st_name":"SANTA ROSA"},"geometry":{"type":"Point","coordinates":[-122.43909672413704,37.728404171333985]}},{"type":"Feature","properties":{"st_type":"RAMP","cnn":"33475000","cnntext":"33475000","st_name":"JUNIPERO SERRA  BLVD ON"},"geometry":{"type":"Point","coordinates":[-122.47255070982472,37.712784122606365]}},{"type":"Feature","properties":{"st_type":"ST","cnn":"27393000","cnntext":"27393000","st_name":"ORTEGA"},"geometry":{"type":"Point","coordinates":[-122.48384415573517,37.75204546249599]}},{"type":"Feature","properties":{"st_type":"TER","cnn":"30722000","cnntext":"30722000","st_name":"PHOENIX"},"geometry":{"type":"Point","coordinates":[-122.41427747551215,37.795968907814206]}},{"type":"Feature","properties":{"st_type":"ST","cnn":"21338000","cnntext":"21338000","st_name":"MISSION"},"geometry":{"type":"Point","coordinates":[-122.42001912733437,37.745389020344184]}},{"type":"Feature","properties":{"st_type":"ST","cnn":"25655000","cnntext":"25655000","st_name":"SANCHEZ"},"geometry":{"type":"Point","coordinates":[-122.42980777669908,37.75315847488086]}},{"type":"Feature","properties":{"st_type":"BLVD","cnn":"27913000","cnntext":"27913000","st_name":"GEARY"},"geometry":{"type":"Point","coordinates":[-122.5018872140585,37.77951433536622]}},{"type":"Feature","properties":{"st_type":"ST","cnn":"25536000","cnntext":"25536000","st_name":"LEAVENWORTH"},"geometry":{"type":"Point","coordinates":[-122.41853063159049,37.804999043551604]}},{"type":"Feature","properties":{"st_type":"BLVD","cnn":"51342000","cnntext":"51342000","st_name":"PARK"},"geometry":{"type":"Point","coordinates":[-122.46717858151598,37.79959774210943]}},{"type":"Feature","properties":{"st_type":"ST","cnn":"27533000","cnntext":"27533000","st_name":"BALBOA"},"geometry":{"type":"Point","coordinates":[-122.48231844919675,37.77639988677777]}},{"type":"Feature","properties":{"st_type":"PL","cnn":"50256000","cnntext":"50256000","st_name":"LEROY"},"geometry":{"type":"Point","coordinates":[-122.41502643778925,37.79179772118346]}},{"type":"Feature","properties":{"st_type":"AVE","cnn":"22210000","cnntext":"22210000","st_name":"LAKEVIEW"},"geometry":{"type":"Point","coordinates":[-122.45511125995793,37.718236973657916]}},{"type":"Feature","properties":{"st_type":"AVE","cnn":"30722000","cnntext":"30722000","st_name":"PACIFIC"},"geometry":{"type":"Point","coordinates":[-122.41427747551215,37.795968907814206]}},{"type":"Feature","properties":{"st_type":"ST","cnn":"21447000","cnntext":"21447000","st_name":"POPE"},"geometry":{"type":"Point","coordinates":[-122.43963075702668,37.70954046332145]}},{"type":"Feature","properties":{"st_type":"ST","cnn":"26627000","cnntext":"26627000","st_name":"BUSH"},"geometry":{"type":"Point","coordinates":[-122.4383938841842,37.786391675523234]}},{"type":"Feature","properties":{"st_type":"AVE","cnn":"21089000","cnntext":"21089000","st_name":"OAKDALE"},"geometry":{"type":"Point","coordinates":[-122.40638818101064,37.74363973315596]}},{"type":"Feature","properties":{"st_type":"AVE","cnn":"27353000","cnntext":"27353000","st_name":"16TH"},"geometry":{"type":"Point","coordinates":[-122.47365232664028,37.75997529895674]}},{"type":"Feature","properties":{"st_type":"ST","cnn":"25894000","cnntext":"25894000","st_name":"HERMANN"},"geometry":{"type":"Point","coordinates":[-122.43007361982988,37.77024306564569]}},{"type":"Feature","properties":{"st_type":"ST","cnn":"32840000","cnntext":"32840000","st_name":"LAWTON"},"geometry":{"type":"Point","coordinates":[-122.46534392429527,37.75846980883779]}},{"type":"Feature","properties":{"st_type":"AVE","cnn":"23318000","cnntext":"23318000","st_name":"OCEAN"},"geometry":{"type":"Point","coordinates":[-122.4951438626928,37.7318472148448]}},{"type":"Feature","properties":{"st_type":"ST","cnn":"33307000","cnntext":"33307000","st_name":"CARVER"},"geometry":{"type":"Point","coordinates":[-122.40998914218288,37.742771971327095]}},{"type":"Feature","properties":{"st_type":"PL","cnn":"24761000","cnntext":"24761000","st_name":"OSGOOD"},"geometry":{"type":"Point","coordinates":[-122.40288650098793,37.79739648176973]}},{"type":"Feature","properties":{"st_type":"ST","cnn":"24190000","cnntext":"24190000","st_name":"DIVISION"},"geometry":{"type":"Point","coordinates":[-122.40800720355621,37.76924401018169]}},{"type":"Feature","properties":{"st_type":"RD","cnn":"51492000","cnntext":"51492000","st_name":"EAST FORT MILEY"},"geometry":{"type":"Point","coordinates":[-122.50262531690119,37.781567554003]}},{"type":"Feature","properties":{"st_type":"ST","cnn":"54193000","cnntext":"54193000","st_name":"MASON"},"geometry":{"type":"Point","coordinates":[-122.46941910315786,37.80641902320498]}},{"type":"Feature","properties":{"st_type":"ST","cnn":"24229000","cnntext":"24229000","st_name":"11TH"},"geometry":{"type":"Point","coordinates":[-122.41247993516302,37.77062985400365]}},{"type":"Feature","properties":{"st_type":"ST","cnn":"21693000","cnntext":"21693000","st_name":"CRAUT"},"geometry":{"type":"Point","coordinates":[-122.42826844796566,37.72928367189944]}},{"type":"Feature","properties":{"st_type":"TER","cnn":"26014000","cnntext":"26014000","st_name":"ALPINE"},"geometry":{"type":"Point","coordinates":[-122.43729899393013,37.76722193011427]}},{"type":"Feature","properties":{"st_type":"ST","cnn":"24292000","cnntext":"24292000","st_name":"MINNA"},"geometry":{"type":"Point","coordinates":[-122.40928340328307,37.77965775221255]}},{"type":"Feature","properties":{"st_type":"ST","cnn":"23250000","cnntext":"23250000","st_name":"VICENTE"},"geometry":{"type":"Point","coordinates":[-122.48507449411599,37.73889987050089]}},{"type":"Feature","properties":{"st_type":"RAMP","cnn":"52162000","cnntext":"52162000","st_name":"I-280 S ON"},"geometry":{"type":"Point","coordinates":[-122.39254779421904,37.76091148370775]}},{"type":"Feature","properties":{"st_type":"LN","cnn":"50039000","cnntext":"50039000","st_name":"KAPLAN"},"geometry":{"type":"Point","coordinates":[-122.39927287753287,37.78515191672788]}},{"type":"Feature","properties":{"st_type":"AVE","cnn":"20517000","cnntext":"20517000","st_name":"BANCROFT"},"geometry":{"type":"Point","coordinates":[-122.3939025072877,37.726237394842265]}},{"type":"Feature","properties":{"st_type":"BLVD","cnn":"27575000","cnntext":"27575000","st_name":"ARGUELLO"},"geometry":{"type":"Point","coordinates":[-122.45938761533324,37.788405218182085]}},{"type":"Feature","properties":{"st_type":"ST","cnn":"25803000","cnntext":"25803000","st_name":"NOE"},"geometry":{"type":"Point","coordinates":[-122.43294913717651,37.76261819985562]}},{"type":"Feature","properties":{"st_type":"ST","cnn":"20325000","cnntext":"20325000","st_name":"HOLYOKE"},"geometry":{"type":"Point","coordinates":[-122.40350661559923,37.714357234831006]}},{"type":"Feature","properties":{"st_type":"ST","cnn":"26680000","cnntext":"26680000","st_name":"PIERCE"},"geometry":{"type":"Point","coordinates":[-122.43859144765662,37.79574121165619]}},{"type":"Feature","properties":{"st_type":"BLVD","cnn":"33479000","cnntext":"33479000","st_name":"FONT"},"geometry":{"type":"Point","coordinates":[-122.47299095798483,37.715011389315045]}},{"type":"Feature","properties":{"st_type":"ST","cnn":"22516000","cnntext":"22516000","st_name":"RALSTON"},"geometry":{"type":"Point","coordinates":[-122.46702750649426,37.71149496984309]}},{"type":"Feature","properties":{"st_type":"ST","cnn":"26034000","cnntext":"26034000","st_name":"HAIGHT"},"geometry":{"type":"Point","coordinates":[-122.43870912489453,37.77105649504412]}},{"type":"Feature","properties":{"st_type":"ST","cnn":"27649000","cnntext":"27649000","st_name":"LAKE"},"geometry":{"type":"Point","coordinates":[-122.48300474810156,37.785834605887814]}},{"type":"Feature","properties":{"st_type":"ST","cnn":"25712000","cnntext":"25712000","st_name":"CHURCH"},"geometry":{"type":"Point","coordinates":[-122.42835406494719,37.76128957318433]}},{"type":"Feature","properties":{"st_type":"AVE","cnn":"20569000","cnntext":"20569000","st_name":"SALINAS"},"geometry":{"type":"Point","coordinates":[-122.39992501727309,37.72151727195414]}},{"type":"Feature","properties":{"st_type":"ST","cnn":"26976000","cnntext":"26976000","st_name":"BRODERICK"},"geometry":{"type":"Point","coordinates":[-122.4443186192341,37.798790245545085]}},{"type":"Feature","properties":{"st_type":"ST","cnn":"51433000","cnntext":"51433000","st_name":"WALLEN"},"geometry":{"type":"Point","coordinates":[-122.4564610140899,37.794238818382226]}},{"type":"Feature","properties":{"st_type":"AVE","cnn":"23046000","cnntext":"23046000","st_name":"JOSEPHA"},"geometry":{"type":"Point","coordinates":[-122.47772214529999,37.71741100500319]}},{"type":"Feature","properties":{"st_type":"ST","cnn":"22161000","cnntext":"22161000","st_name":"EDNA"},"geometry":{"type":"Point","coordinates":[-122.44657347617441,37.73069925040161]}},{"type":"Feature","properties":{"st_type":"ST","cnn":"25046000","cnntext":"25046000","st_name":"CLAY"},"geometry":{"type":"Point","coordinates":[-122.40919145094713,37.79389640937646]}},{"type":"Feature","properties":{"st_type":"ST","cnn":"50565000","cnntext":"50565000","st_name":"WAWONA"},"geometry":{"type":"Point","coordinates":[-122.4828268879299,37.73746868672643]}},{"type":"Feature","properties":{"st_type":"ST","cnn":"25811000","cnntext":"25811000","st_name":"19TH"},"geometry":{"type":"Point","coordinates":[-122.43485368095365,37.75928917091022]}},{"type":"Feature","properties":{"st_type":"AVE","cnn":"51190000","cnntext":"51190000","st_name":"LIGGETT"},"geometry":{"type":"Point","coordinates":[-122.45029798291314,37.79363838932104]}},{"type":"Feature","properties":{"st_type":"ST","cnn":"26487000","cnntext":"26487000","st_name":"ANZA"},"geometry":{"type":"Point","coordinates":[-122.45481822963504,37.780116944592166]}},{"type":"Feature","properties":{"st_type":"AVE","cnn":"22973000","cnntext":"22973000","st_name":"DORANTES"},"geometry":{"type":"Point","coordinates":[-122.46357211324423,37.74591184720205]}},{"type":"Feature","properties":{"st_type":"ST","cnn":"21092000","cnntext":"21092000","st_name":"MAYFLOWER"},"geometry":{"type":"Point","coordinates":[-122.40742355820733,37.74232745624141]}},{"type":"Feature","properties":{"st_type":"AVE","cnn":"22817000","cnntext":"22817000","st_name":"SAN FELIPE"},"geometry":{"type":"Point","coordinates":[-122.4634743885982,37.73259478328651]}},{"type":"Feature","properties":{"st_type":"ST","cnn":"26605000","cnntext":"26605000","st_name":"CALIFORNIA"},"geometry":{"type":"Point","coordinates":[-122.43219667989747,37.789115230993204]}},{"type":"Feature","properties":{"st_type":"LN","cnn":"32913000","cnntext":"32913000","st_name":"GLENHAVEN"},"geometry":{"type":"Point","coordinates":[-122.45652251160205,37.75546244362389]}},{"type":"Feature","properties":{"st_type":"AVE","cnn":"33315000","cnntext":"33315000","st_name":"STONEYBROOK"},"geometry":{"type":"Point","coordinates":[-122.42173050140438,37.731352098078005]}},{"type":"Feature","properties":{"st_type":"BLVD","cnn":"22882000","cnntext":"22882000","st_name":"DEWEY"},"geometry":{"type":"Point","coordinates":[-122.46368599568817,37.743749409863035]}},{"type":"Feature","properties":{"st_type":"ST","cnn":"26964000","cnntext":"26964000","st_name":"CHESTNUT"},"geometry":{"type":"Point","coordinates":[-122.4395041717704,37.80040342994529]}},{"type":"Feature","properties":{"st_type":"BLVD","cnn":"32928000","cnntext":"32928000","st_name":"TWIN PEAKS"},"geometry":{"type":"Point","coordinates":[-122.44753609516843,37.75248195448526]}},{"type":"Feature","properties":{"st_type":"ST","cnn":"24904000","cnntext":"24904000","st_name":"POWELL"},"geometry":{"type":"Point","coordinates":[-122.4080362362706,37.786409613741725]}},{"type":"Feature","properties":{"st_type":"ST","cnn":"25014000","cnntext":"25014000","st_name":"POWELL"},"geometry":{"type":"Point","coordinates":[-122.40954104857238,37.79385192878324]}},{"type":"Feature","properties":{"st_type":"ST","cnn":"22472000","cnntext":"22472000","st_name":"FARALLONES"},"geometry":{"type":"Point","coordinates":[-122.45606142498283,37.71407676056609]}},{"type":"Feature","properties":{"st_type":"PL","cnn":"50247000","cnntext":"50247000","st_name":"EWER"},"geometry":{"type":"Point","coordinates":[-122.4116805093843,37.793098254579725]}},{"type":"Feature","properties":{"st_type":"AVE","cnn":"33719000","cnntext":"33719000","st_name":"20TH"},"geometry":{"type":"Point","coordinates":[-122.47603947235092,37.72694991386801]}},{"type":"Feature","properties":{"st_type":"AVE","cnn":"27678000","cnntext":"27678000","st_name":"33RD"},"geometry":{"type":"Point","coordinates":[-122.49134484554358,37.751710224965215]}},{"type":"Feature","properties":{"st_type":"AVE","cnn":"22115000","cnntext":"22115000","st_name":"SAN JOSE"},"geometry":{"type":"Point","coordinates":[-122.44238719040504,37.72579268499229]}},{"type":"Feature","properties":{"st_type":"ST","cnn":"27759000","cnntext":"27759000","st_name":"LAWTON"},"geometry":{"type":"Point","coordinates":[-122.49709088506776,37.7570697390298]}},{"type":"Feature","properties":{"st_type":"ST","cnn":"22739000","cnntext":"22739000","st_name":"MONTICELLO"},"geometry":{"type":"Point","coordinates":[-122.47077902814574,37.721637300931896]}},{"type":"Feature","properties":{"st_type":"DR","cnn":"23342000","cnntext":"23342000","st_name":"CRESTLAKE"},"geometry":{"type":"Point","coordinates":[-122.49133489925764,37.737293023139145]}},{"type":"Feature","properties":{"st_type":null,"cnn":"52186000","cnntext":"52186000","st_name":"UNNAMED 087"},"geometry":{"type":"Point","coordinates":[-122.45233644373398,37.72354844509674]}},{"type":"Feature","properties":{"st_type":"ST","cnn":"21493000","cnntext":"21493000","st_name":"LOWELL"},"geometry":{"type":"Point","coordinates":[-122.44483941246236,37.70858376871463]}},{"type":"Feature","properties":{"st_type":"ST","cnn":"21266000","cnntext":"21266000","st_name":"ELLSWORTH"},"geometry":{"type":"Point","coordinates":[-122.41437215966634,37.74245670673695]}},{"type":"Feature","properties":{"st_type":"ST","cnn":"21296000","cnntext":"21296000","st_name":"26TH"},"geometry":{"type":"Point","coordinates":[-122.41595464233595,37.749172182980914]}},{"type":"Feature","properties":{"st_type":"ST","cnn":"27601000","cnntext":"27601000","st_name":"LAKE"},"geometry":{"type":"Point","coordinates":[-122.46683033510637,37.786568135695056]}},{"type":"Feature","properties":{"st_type":"LN","cnn":"33144000","cnntext":"33144000","st_name":"OSCEOLA"},"geometry":{"type":"Point","coordinates":[-122.38380325201395,37.732434023608654]}},{"type":"Feature","properties":{"st_type":"AVE","cnn":"23031000","cnntext":"23031000","st_name":"HOLLOWAY"},"geometry":{"type":"Point","coordinates":[-122.47454732742793,37.7211969223162]}},{"type":"Feature","properties":{"st_type":"AVE","cnn":"25325000","cnntext":"25325000","st_name":"GRANT"},"geometry":{"type":"Point","coordinates":[-122.40720639396807,37.79877630946927]}},{"type":"Feature","properties":{"st_type":"ST","cnn":"23974000","cnntext":"23974000","st_name":"ALABAMA"},"geometry":{"type":"Point","coordinates":[-122.41081071239117,37.75109168838395]}},{"type":"Feature","properties":{"st_type":"AVE","cnn":"27676000","cnntext":"27676000","st_name":"31ST"},"geometry":{"type":"Point","coordinates":[-122.4893237105833,37.753674193260466]}},{"type":"Feature","properties":{"st_type":"AVE","cnn":"21566000","cnntext":"21566000","st_name":"MODOC"},"geometry":{"type":"Point","coordinates":[-122.4487424499494,37.71477270735318]}},{"type":"Feature","properties":{"st_type":"DR","cnn":"33508000","cnntext":"33508000","st_name":"CLEARFIELD"},"geometry":{"type":"Point","coordinates":[-122.4905467849478,37.72965201597084]}},{"type":"Feature","properties":{"st_type":"AVE","cnn":"27632000","cnntext":"27632000","st_name":"18TH"},"geometry":{"type":"Point","coordinates":[-122.47750934892605,37.78422249149946]}},{"type":"Feature","properties":{"st_type":"AVE","cnn":"21119000","cnntext":"21119000","st_name":"PERALTA"},"geometry":{"type":"Point","coordinates":[-122.40687920442386,37.74750171177958]}},{"type":"Feature","properties":{"st_type":"AVE","cnn":"21751000","cnntext":"21751000","st_name":"ONONDAGA"},"geometry":{"type":"Point","coordinates":[-122.43746113996744,37.721163548407944]}},{"type":"Feature","properties":{"st_type":"ST","cnn":"25434000","cnntext":"25434000","st_name":"TAYLOR"},"geometry":{"type":"Point","coordinates":[-122.41402750574728,37.79936653449362]}},{"type":"Feature","properties":{"st_type":"ST","cnn":"26486000","cnntext":"26486000","st_name":"STANYAN"},"geometry":{"type":"Point","coordinates":[-122.45521694185555,37.777599278985164]}},{"type":"Feature","properties":{"st_type":"ALY","cnn":"32991000","cnntext":"32991000","st_name":"AVOCA"},"geometry":{"type":"Point","coordinates":[-122.45003103703156,37.73783519930325]}},{"type":"Feature","properties":{"st_type":"AVE","cnn":"23027000","cnntext":"23027000","st_name":"19TH"},"geometry":{"type":"Point","coordinates":[-122.47494692275482,37.72308573212715]}},{"type":"Feature","properties":{"st_type":"BLVD","cnn":"51283000","cnntext":"51283000","st_name":"WASHINGTON"},"geometry":{"type":"Point","coordinates":[-122.46332052468942,37.79473182011812]}},{"type":"Feature","properties":{"st_type":"ST","cnn":"27582000","cnntext":"27582000","st_name":"CORNWALL"},"geometry":{"type":"Point","coordinates":[-122.46133639506418,37.78495687965053]}},{"type":"Feature","properties":{"st_type":"ST","cnn":"25845000","cnntext":"25845000","st_name":"14TH"},"geometry":{"type":"Point","coordinates":[-122.42553611174414,37.7679387098169]}},{"type":"Feature","properties":{"st_type":"CIR","cnn":"54083000","cnntext":"54083000","st_name":"LE CONTE"},"geometry":{"type":"Point","coordinates":[-122.39497458631894,37.71787732086808]}},{"type":"Feature","properties":{"st_type":"AVE","cnn":"27356000","cnntext":"27356000","st_name":"17TH"},"geometry":{"type":"Point","coordinates":[-122.47485493190595,37.7617941443967]}},{"type":"Feature","properties":{"st_type":"ST","cnn":"27238000","cnntext":"27238000","st_name":"CABRILLO"},"geometry":{"type":"Point","coordinates":[-122.46173342807907,37.775467399964434]}},{"type":"Feature","properties":{"st_type":"ST","cnn":"23791000","cnntext":"23791000","st_name":"07TH"},"geometry":{"type":"Point","coordinates":[-122.39817921777194,37.76904137831926]}},{"type":"Feature","properties":{"st_type":"ST","cnn":"23821000","cnntext":"23821000","st_name":"TOWNSEND"},"geometry":{"type":"Point","coordinates":[-122.39498148051037,37.77708933290916]}},{"type":"Feature","properties":{"st_type":"AVE","cnn":"33597000","cnntext":"33597000","st_name":"FAXON"},"geometry":{"type":"Point","coordinates":[-122.45919314454655,37.73060295426545]}},{"type":"Feature","properties":{"st_type":"WAY","cnn":"33412000","cnntext":"33412000","st_name":"MERCEDES"},"geometry":{"type":"Point","coordinates":[-122.47170263722097,37.72680820079991]}},{"type":"Feature","properties":{"st_type":null,"cnn":"52131000","cnntext":"52131000","st_name":"I-280 SOUTHBOUND"},"geometry":{"type":"Point","coordinates":[-122.4459527111422,37.726364671451954]}},{"type":"Feature","properties":{"st_type":"ST","cnn":"30750000","cnntext":"30750000","st_name":"MARKET"},"geometry":{"type":"Point","coordinates":[-122.42069877367197,37.77400780548862]}},{"type":"Feature","properties":{"st_type":"AVE","cnn":"22401000","cnntext":"22401000","st_name":"LANSDALE"},